city_ascii,lat,lng,population
Tokyo,35.6870,139.7495,37785000
Jakarta,-6.1750,106.8275,33756000
Delhi,28.6100,77.2300,32226000
Guangzhou,23.1300,113.2600,26940000
Mumbai,19.0761,72.8775,24973000
Manila,14.5958,120.9772,24922000
Shanghai,31.2286,121.4747,24073000
Sao Paulo,-23.5504,-46.6339,23086000
Seoul,37.5667,126.9833,23016000
Mexico City,19.4333,-99.1333,21804000
Kolkata,22.5675,88.3700,21747000
Cairo,30.0444,31.2358,20296000
Karachi,24.8600,67.0100,20249000
Dhaka,23.7289,90.3944,19134000
New York,40.6943,-73.9249,18832416
Beijing,39.9067,116.3975,18522000
Bangkok,13.7525,100.4942,18007000
Shenzhen,22.5415,114.0596,17619000
Moscow,55.7506,37.6175,17332000
Buenos Aires,-34.6036,-58.3814,16710000
Lagos,6.4550,3.3841,16637000
Bangalore,12.9789,77.5917,15386000
Ho Chi Minh City,10.7756,106.7019,15136000
Osaka,34.6939,135.5022,15126000
Chengdu,30.6600,104.0633,14645000
Istanbul,41.0136,28.9550,14441000
Tehran,35.6889,51.3897,14148000
Kinshasa,-4.3219,15.3119,12836000
Rio de Janeiro,-22.9111,-43.2056,12592000
Chennai,13.0825,80.2750,12395000
Xi'an,34.2611,108.9422,12328000
Lahore,31.5497,74.3436,12306000
Chongqing,29.5637,106.5504,12135000
Los Angeles,34.1141,-118.4068,11885717
London,51.5072,-0.1275,11262000
Paris,48.8567,2.3522,11060000
Linyi,35.1038,118.3564,10820000
Dongguan,23.0210,113.7520,10646000
Baoding,38.8740,115.4640,10546831
Hyderabad,17.3617,78.4747,10494000
Tianjin,39.1336,117.2054,10368000
Lima,-12.0600,-77.0375,10320000
Wuhan,30.5934,114.3046,10251000
Nanyang,32.9902,112.5285,9577771
Hangzhou,30.2670,120.1530,9523000
Nagoya,35.1833,136.9000,9197000
Luanda,-8.8383,13.2344,9051000
Foshan,23.0214,113.1216,9042500
Kuala Lumpur,3.1686,101.6980,8911000
Zhoukou,33.6367,114.7014,8677800
Tongshan,34.2610,117.1859,8669000
Hanoi,21.0000,105.8500,8587100
Chicago,41.8375,-87.6866,8489066
Nanjing,32.0608,118.7789,8422000
Heze,35.2343,115.4796,8287693
Pune,18.5203,73.8567,8231000
Jining,35.4151,116.5871,8081905
Bogota,4.7111,-74.0722,8034649
Ahmedabad,23.0225,72.5714,8009000
Shenyang,41.8025,123.4281,7964000
Dar es Salaam,-6.8161,39.2803,7962000
Khartoum,15.6031,32.5265,7869000
Johannesburg,-26.2044,28.0456,7860781
Fuyang,32.8900,115.8140,7599913
Hong Kong,22.3000,114.2000,7450000
Ganzhou,25.8310,114.9330,7396873
Shangqiu,34.4150,115.6560,7325300
Cangzhou,38.3047,116.8387,7300783
Riyadh,24.6500,46.7100,7237000
Santiago,-33.4372,-70.6506,7171000
Zhumadian,33.0140,114.0220,7008427
Zhanjiang,21.2701,110.3575,6981236
Rangoon,16.7950,96.1600,6874000
Yancheng,33.3500,120.1569,6709629
Bijie,27.2840,105.2920,6686100
Xingtai,37.0717,114.5048,6645766
Hengyang,26.8940,112.5720,6645243
Shaoyang,27.2395,111.4679,6563520
Surabaya,-7.2458,112.7378,6556000
Surat,21.2050,72.8400,6538000
Quanzhou,24.8744,118.6757,6480000
Shangrao,28.4551,117.9431,6435300
Zunyi,27.7220,107.0310,6270700
Madrid,40.4169,-3.7033,6211000
Baghdad,33.3153,44.3661,6183000
Maoming,21.6627,110.9255,6174050
Miami,25.7840,-80.2101,6113982
Xinyang,32.1490,114.0910,6109106
Houston,29.7860,-95.3885,6046392
Singapore,1.3000,103.8000,5983000
Prayagraj,25.4358,81.8464,5954391
Huanggang,30.4537,114.8724,5882719
Dalian,38.9000,121.6000,5871474
Ankara,39.9300,32.8500,5864049
Dallas,32.7935,-96.7667,5843632
Qingdao,36.0669,120.3827,5818255
Yulin,22.6540,110.1810,5796766
Liaocheng,36.4559,115.9852,5789863
Douala,4.0500,9.7000,5768400
Qujing,25.4910,103.7960,5765775
Nangandao,35.3036,113.9268,5708191
Addis Ababa,9.0300,38.7400,5704000
Philadelphia,40.0077,-75.1339,5696588
Toronto,43.7417,-79.3733,5647656
Zhengzhou,34.7640,113.6840,5621593
Nanchong,30.8372,106.1106,5607565
Jinan,36.6702,117.0207,5606374
Giza,29.9870,31.2118,5598402
Saint Petersburg,59.9375,30.3086,5597763
Jieyang,23.5510,116.3727,5577814
Dezhou,37.4360,116.3590,5568235
Nairobi,-1.2864,36.8172,5545000
Guadalajara,20.6767,-103.3475,5525000
Tai'an,36.2020,117.0870,5472217
Dazhou,31.2093,107.4678,5385422
Belo Horizonte,-19.9281,-43.9419,5328000
Suzhou,33.6480,116.9640,5324476
Monterrey,25.6844,-100.3181,5324281
Yongzhou,26.4200,111.6130,5289824
Changde,29.0310,111.6990,5279102
Xiangyang,32.0100,112.1220,5260951
Atlanta,33.7628,-84.4220,5211164
Pudong,31.2347,121.5064,5187200
Washington,38.9047,-77.0163,5146120
Zhaotong,27.3380,103.7170,5092611
Zhangzhou,24.5130,117.6470,5054328
Yueyang,29.3647,113.1309,5051922
Melbourne,-37.8142,144.9631,5031195
Yichun,27.8160,114.4170,5007702
Abidjan,5.3364,-4.0267,4980000
Guilin,25.2750,110.2960,4931137
Pingdingshan,33.7666,113.1926,4904701
Alexandria,31.1975,29.8925,4870000
Bozhou,33.8463,115.7786,4850657
Sydney,-33.8667,151.2000,4840600
Barcelona,41.3833,2.1833,4800000
Yuncheng,35.0267,111.0070,4774508
Cape Town,-33.9253,18.4239,4770313
Changsha,28.2280,112.9390,4766296
Suqian,33.9630,118.2750,4719178
Jeddah,21.5428,39.1728,4697000
Weinan,34.5206,109.4710,4688744
Berlin,52.5200,13.4050,4679500
Chenzhou,25.7700,113.0160,4667134
Jiangmen,22.5789,113.0815,4630300
Mianyang,31.4680,104.6790,4613862
Jiujiang,29.6610,115.9540,4600276
Huaihua,27.5698,110.0016,4587594
Huanglongsi,34.7950,114.3450,4564900
Taizhou,32.4567,119.9229,4512762
Belahi,26.4000,86.2500,4487379
Yibin,28.7520,104.6430,4471896
Ji'an,27.0912,114.9668,4469176
Yangzhou,32.3944,119.4128,4459760
Kunming,25.0464,102.7094,4422686
Changchun,43.8970,125.3260,4408154
Lu'an,31.7360,116.5200,4393699
Xinpu,34.5966,119.2214,4393482
Langfang,39.5383,116.6835,4358839
Boston,42.3188,-71.0852,4355184
Urumqi,43.8225,87.6125,4335017
Suzhou,31.3000,120.6194,4330000
Guigang,23.1120,109.5990,4316262
Shantou,23.3540,116.6820,4312192
Jiangguanchi,34.0370,113.8520,4307488
Kabul,34.5253,69.1783,4273156
Xiaoganzhan,30.9180,113.9570,4270371
Bamako,12.6458,-7.9922,4227569
Kano,12.0000,8.5167,4224966
Luzhou,28.8710,105.4420,4218427
Hefei,31.8206,117.2273,4216940
Hengshui,37.7390,115.6690,4212933
Fortaleza,-3.7275,-38.5275,4167996
Anqing,30.5318,117.1153,4165284
Zhangjiakou,40.7690,114.8860,4118908
Zhaoqing,23.0500,112.4667,4113594
Shijiazhuang,38.0425,114.5100,4098243
Ningbo,29.8603,121.6245,4087523
Qiqihar,47.3549,123.9182,4067489
Phoenix,33.5722,-112.0892,4065338
Liuzhou,24.3278,109.4278,4041700
Chifeng,42.2550,118.8825,4035967
Xiaoxita,30.6920,111.2870,4017607
Amman,31.9497,35.9328,4007526
Linfen,36.0880,111.5190,3976481
Xianyang,34.3299,108.7088,3959842
Chuzhou,32.2560,118.3330,3937868
Kumasi,6.7000,-1.6250,3903480
Zhuzhou,27.8290,113.1330,3902738
Taiyuan,37.8704,112.5497,3875053
Qingyuan,23.6820,113.0560,3874000
Meizhou,24.2890,116.1220,3873239
Yiyang,28.5549,112.3560,3851564
Nanning,22.8167,108.3275,3837978
Harbin,45.7576,126.6409,3830000
Loudi,27.6998,111.9944,3826996
Abuja,9.0667,7.4833,3770000
Yokohama,35.4442,139.6381,3757630
Suihua,46.6540,126.9690,3756167
Binzhou,37.3830,117.9710,3748474
Zaozhuang,34.8109,117.3238,3729140
Detroit,42.3834,-83.1024,3716929
Xiamen,24.4796,118.0889,3707090
Mashhad,36.3264,59.5433,3700000
Montreal,45.5089,-73.5617,3675219
Fuzhou,26.0743,119.2964,3671192
Wuhu,31.3526,118.4331,3644420
Medan,3.5894,98.6739,3632000
Yulinshi,38.2858,109.7341,3624750
Fuzhou,27.9490,116.3580,3614866
Wenzhou,27.9938,120.6993,3604446
Changzhou,31.8110,119.9740,3601079
Puyang,35.7627,115.0292,3598740
Nanchang,28.6830,115.8580,3576547
Baicheng,23.9030,106.6190,3571505
Seattle,47.6211,-122.3244,3555253
Ibadan,7.3964,3.9167,3552000
Jiaozuo,35.2157,113.2419,3521078
Nadampalaiyam,11.0125,76.9714,3458045
Deyang,31.1270,104.3980,3456161
Busan,35.1800,129.0750,3453198
Hechi,24.6930,108.0850,3417945
Tangshan,39.6294,118.1739,3399231
Lucknow,26.8500,80.9500,3382000
San Francisco,37.7558,-122.4449,3364862
Boankra,6.6919,-1.4051,3348000
Dubai,25.2631,55.2972,3331420
Anshan,41.1080,122.9940,3325372
Guozhen,34.3609,107.1751,3321853
Baojishi,34.3630,107.2380,3321853
Qinzhou,21.9810,108.6540,3302238
Guiyang,26.6470,106.6300,3299724
Wuxi,31.5667,120.2833,3245179
Kannankulam,10.5200,76.2100,3243170
Caracas,10.4806,-66.9036,3242000
Kotla Qasim Khan,32.5833,73.7500,3219375
Casablanca,33.5333,-7.5833,3215935
Hanzhong,33.0664,107.0232,3211462
Shiyan,32.6290,110.7987,3209004
Guang'an,30.4564,106.6326,3205476
Faisalabad,31.4167,73.0911,3203846
Changzhi,36.1950,113.1170,3180884
Tongren,27.7316,109.1895,3168800
Bengbu,32.9170,117.3890,3164467
Leshan,29.5520,103.7660,3160168
Santa Cruz de la Sierra,-17.7892,-63.1975,3151676
Neijiang,29.5802,105.0580,3140678
Zhenjiang,32.1880,119.4240,3113384
Qinhuangdao,39.8882,119.5202,3107400
Bursa,40.1833,29.0500,3101833
Tashkent,41.3111,69.2797,3095498
Guayaquil,-2.1900,-79.8875,3094420
Jaipur,26.9000,75.8000,3073350
Lanzhou,36.0606,103.8268,3067141
Ouagadougou,12.3686,-1.5275,3063271
Athens,37.9842,23.7281,3059764
San Diego,32.8313,-117.1222,3057778
Guatemala City,14.6417,-90.5133,3014000
Kuwait City,29.3697,47.9783,2989000
Qincheng,34.5815,105.7248,2984659
Izmir,38.4200,27.1400,2965900
Quezon City,14.6500,121.0475,2960048
Kyiv,50.4500,30.5233,2952301
Kottarassheri,10.7750,76.6510,2952254
Meishan,30.0771,103.8484,2950545
Incheon,37.4833,126.6333,2936117
Ningde,26.6662,119.5477,2910000
Zhongshan,22.5170,113.3925,2909633
Minneapolis,44.9635,-93.2678,2906807
Tampa,27.9945,-82.4447,2906035
Putian,25.4526,119.0078,2900000
Mbuji-Mayi,-6.1500,23.6000,2892000
Tongliao,43.6540,122.2430,2873168
Chaoyang,41.5710,120.4530,2872857
Hohhot,40.8420,111.7490,2866615
Pyongyang,39.0167,125.7475,2863000
Shaoguan,24.8110,113.5970,2855131
Taichung,24.1439,120.6794,2850285
Cali,3.4206,-76.5222,2838333
Heyuan,23.7443,114.7002,2837686
Wuzhou,23.4767,111.2790,2820977
Pretoria,-25.7461,28.1881,2818100
Suining,30.5330,105.5930,2814196
Omdurman,15.6835,32.4629,2805396
Weihai,37.5133,122.1205,2804771
Rizhao,35.4170,119.5270,2801013
Malang,-7.9800,112.6200,2795209
Stuttgart,48.7775,9.1800,2787724
Daqing,46.5890,125.1040,2781562
Rome,41.8931,12.4828,2748109
Kaohsiung,22.6150,120.2975,2737660
Brooklyn,40.6501,-73.9496,2736074
Xiangtan,27.8313,112.9454,2726181
Bazhou,31.8680,106.7480,2712894
Handan,36.6010,114.4870,2708015
Brisbane,-27.4678,153.0281,2706966
Jinzhou,41.1290,121.1480,2703853
Denver,39.7620,-104.8758,2691349
Xinzhou,38.4160,112.7340,2689668
Nanping,26.6418,118.1774,2680645
Gazipura,23.9234,90.3959,2674697
Shanwei,22.7872,115.3756,2672819
Maracaibo,10.6333,-71.6333,2658355
Chaozhou,23.6580,116.6220,2656600
Baotou,40.6213,109.9532,2650364
Longyan,25.0760,117.0170,2640000
Weifang,36.7080,119.1620,2636154
Huai'an,33.5510,119.1130,2632788
Zibo,36.8138,118.0550,2631647
Attadappa,11.8689,75.3555,2615266
Munich,48.1375,11.5750,2606021
Gulou,26.0865,119.2980,2606000
Birmingham,52.4800,-1.9025,2590363
Valencia,10.1833,-68.0000,2585202
Damascus,33.5020,36.2981,2584771
Chattogram,22.3350,91.8325,2581643
Brazzaville,-4.2667,15.2667,2557100
Yangjiang,21.8570,111.9830,2555600
Sanaa,15.3483,44.2064,2545000
Barmhan Kalan,19.1972,72.9722,2537000
Medellin,6.2308,-75.5906,2529403
Dingxi,35.6080,104.5920,2524097
Shaoxing,30.0511,120.5833,2521964
Yantai,37.4646,121.4478,2511053
Huizhou,23.1120,114.4160,2509243
Xuanzhou,30.9390,118.7590,2500063
Mirzapur,25.1460,82.5690,2496970
Hamburg,53.5500,10.0000,2496600
Taipei,25.0375,121.5625,2494813
Ankang,32.6854,109.0290,2493436
Zigong,29.3390,104.7790,2489256
Sanming,26.2634,117.6389,2486450
Toluca,19.2925,-99.6569,2476689
Huangshi,30.2011,115.0390,2469079
Yaounde,3.8667,11.5167,2440462
Zhuhai,22.2742,113.5719,2439585
Huludao,40.7110,120.8370,2434194
Baoshan,25.1120,99.1610,2431211
Mecca,21.4225,39.8261,2427924
Vancouver,49.2500,-123.1000,2426160
Lianshan,40.7523,120.8280,2426000
Beirut,33.8981,35.5058,2421354
Salvador,-12.9831,-38.4928,2417678
Bucharest,44.4325,26.1039,2412530
Longba,33.3702,104.9603,2407272
Nagpur,21.1497,79.0806,2405665
Queens,40.7498,-73.7976,2405464
Tieling,42.2237,123.7260,2388294
Yunfu,22.9152,112.0445,2383350
Bekasi,-6.2333,107.0000,2381053
Daegu,35.8717,128.6017,2376044
Ghaziabad,28.6700,77.4200,2375820
Luoyang,34.6197,112.4539,2372571
Luohe,33.5804,114.0166,2367490
Algiers,36.7325,3.0872,2364230
Anshun,26.2531,105.9476,2353100
Huainan,32.6314,117.0194,2333896
Depok,-6.3940,106.8225,2330333
Konya,37.8667,32.4833,2320241
Haiphong,20.8651,106.6838,2310280
Yanjiang,30.1290,104.6270,2308631
Guangyuan,32.4360,105.8440,2305657
Baku,40.3667,49.8352,2300500
Yingkou,40.6250,122.2190,2296540
Mudanjiang,44.5514,129.6329,2290208
Riverside,33.9381,-117.3949,2288508
Fukuoka,33.5900,130.4017,2286000
Nantong,31.9810,120.8940,2261382
Lincang,23.8840,100.0890,2257991
Las Vegas,36.2333,-115.2654,2256509
Haikou,20.0186,110.3488,2250000
Yuxi,24.3470,102.5270,2249502
Tangerang,-6.1703,106.6403,2237006
Supaul,26.1260,86.6050,2229076
Almaty,43.2400,76.9150,2228675
Vienna,48.2083,16.3725,2223236
Esfahan,32.6653,51.6703,2219343
Xining,36.6224,101.7804,2208708
Jincheng,35.4910,112.8520,2194545
Baltimore,39.3051,-76.6144,2189589
Dandong,40.1167,124.3833,2188436
Yan'an,36.6500,109.4940,2187009
Qinbaling,35.7091,107.6436,2179716
Gaoping,30.7824,106.1281,2174000
Awka,6.2069,7.0678,2171900
Taizhou,28.6557,121.4208,2162461
Ma'anshan,31.6690,118.5070,2159930
Jiamusi,46.8000,130.3190,2156505
Perth,-31.9558,115.8597,2141834
Gaziantep,37.0628,37.3792,2130432
Phnom Penh,11.5696,104.9210,2129371
St. Louis,38.6359,-90.2451,2127843
Mogadishu,2.0392,45.3419,2120000
Lishui,28.4680,119.9230,2116957
Kowloon,22.3167,114.1833,2108419
Cordoba,-31.4167,-64.1833,2106734
Zamboanga City,6.9042,122.0761,2100000
Rawalpindi,33.6000,73.0333,2098231
Havana,23.1367,-82.3589,2089532
Chongzuo,22.3770,107.3650,2088692
Portland,45.5371,-122.6500,2084045
Laibin,23.7501,109.2212,2074611
San Antonio,29.4632,-98.5238,2069843
Vadodara,22.3000,73.2000,2065771
Qingyang,24.7816,118.5517,2061600
Rajkot,22.3000,70.7833,2043000
Shangzhou,33.8734,109.9186,2041231
Vishakhapatnam,17.7042,83.2978,2035922
Shengli,37.4340,118.6746,2035338
Sanmenxia,34.7732,111.2004,2034872
Warsaw,52.2300,21.0111,2028000
Gujranwala,32.1567,74.1900,2027001
Hezhou,24.4042,111.5672,2007858
Aleppo,36.2319,37.1681,2003671
Tijuana,32.5250,-117.0333,2002000
Puning,23.2980,116.1660,1998619
Indore,22.7167,75.8472,1994397
Minsk,53.9006,27.5586,1992862
Karaj,35.8292,50.9675,1973470
Kananga,-5.8970,22.4488,1971704
Huaibei,33.9560,116.7980,1970265
Peshawar,34.0144,71.5675,1970042
Sacramento,38.5677,-121.4685,1962998
Sapporo,43.0619,141.3544,1959313
Tilburg,51.5572,5.0911,1944588
Austin,30.3005,-97.7522,1915031
Orlando,28.4773,-81.3370,1913597
Davao,7.0700,125.6000,1910167
Songjiang,31.0058,121.2333,1909713
Yinchuan,38.4850,106.2250,1901793
Abhepur,39.4100,116.3800,1895686
Thane,19.1972,72.9722,1886941
Multan,30.1978,71.4697,1871843
Port Harcourt,4.8242,7.0336,1865000
Fushun,41.8810,123.9570,1861372
Tainan,22.9833,120.1833,1856642
Pingliang,35.5424,106.6649,1848607
Siping,43.1668,124.3506,1814733
San Juan,18.3985,-66.0610,1809800
Pingxiang,27.6590,113.8870,1804805
Bhopal,23.2599,77.4126,1798218
Mosul,36.3667,43.1167,1792000
Diyarbakir,37.9100,40.2400,1791373
Lubumbashi,-11.6647,27.4794,1786397
Benin City,6.3333,5.6222,1780000
Curitiba,-25.4297,-49.2719,1773718
San Jose,37.3012,-121.8480,1771563
Shuyangzha,34.1299,118.7734,1770000
Adana,37.0000,35.3213,1765981
Quito,-0.2200,-78.5125,1763275
Agra,27.1800,78.0200,1760285
Peyanvilai,8.9000,77.9833,1750176
Lusaka,-15.4167,28.2833,1747152
Indianapolis,39.7771,-86.1458,1740984
Hyderabad City,25.3792,68.3683,1732693
Pimpri-Chinchwad,18.6186,73.8037,1729320
Maracay,10.2469,-67.5961,1723236
Masqat,23.6140,58.5911,1720000
Montevideo,-34.9056,-56.1842,1719453
Pittsburgh,40.4397,-79.9763,1712828
Cincinnati,39.1413,-84.5060,1704916
Manhattan,40.7834,-73.9662,1694263
Kansas City,39.1238,-94.5541,1686807
Budapest,47.4983,19.0408,1686222
Patna,25.5940,85.1376,1684222
Kampala,0.3136,32.5811,1680600
Beihai,21.4810,109.1200,1680000
Sanzhou,30.8200,108.4000,1680000
Cleveland,41.4764,-81.6805,1679247
Conakry,9.5092,-13.7122,1667864
Ximeicun,24.9612,118.3849,1663542
Caloocan City,14.6500,120.9700,1661584
Ecatepec,19.6097,-99.0600,1655015
Yushan,31.3220,120.9850,1652159
Fuxin,42.0220,121.6700,1647280
Novosibirsk,55.0500,82.9500,1633851
Bilaspur,22.0900,82.1500,1625502
Semarang,-6.9900,110.4225,1621384
Jingdezhen,29.2917,117.1986,1618979
Ludhiana,30.9100,75.8500,1618879
Liaoyang,41.2790,123.1760,1604580
Jiangyin,31.8390,120.2950,1595138
Valencia,39.4700,-0.3764,1595000
Shuozhou,39.3317,112.4329,1593444
Leon de los Aldama,21.1167,-101.6833,1579803
Columbus,39.9862,-82.9855,1578153
Puebla,19.0333,-98.1833,1576259
Bien Hoa,10.9500,106.8167,1575000
Chengtangcun,35.0833,117.1500,1574648
Yopougon,5.3748,-4.0867,1571065
Hebi,35.7480,114.2970,1565973
Shiraz,29.6100,52.5425,1565572
Dushanbe,38.5367,68.7800,1564700
Madurai,9.9252,78.1198,1561129
Huzhou,30.8925,120.0875,1558826
Harare,-17.8292,31.0522,1558823
Tabriz,38.0817,46.2992,1558693
Jamshedpur,22.7925,86.1842,1558000
Baicheng,45.6200,122.8380,1551378
San Jose,9.9325,-84.0800,1543000
Shaoyang,32.9120,119.8526,1542600
San Salvador,13.6989,-89.1914,1538525
Palembang,-2.9861,104.7556,1535952
Kawasaki,35.5167,139.7000,1531646
Kobe,34.6900,135.1956,1521707
Jiaxing,30.7470,120.7560,1518654
Zhangjiajie,29.1170,110.4790,1517027
Baiyin,36.5451,104.1389,1512110
Guiping,23.4000,110.0833,1511011
Changshu,31.6560,120.7530,1510100
Jixi,45.2950,130.9690,1502060
Xushan,30.1667,121.2333,1502000
Lome,6.1308,1.2153,1500000
Niamey,13.5150,2.1175,1496260
Gwangju,35.1653,126.8486,1490092
Recife,-8.0539,-34.8808,1488920
Nasik,19.9975,73.7898,1486053
Abu Dhabi,24.4667,54.3667,1483000
Onitsha,6.1667,6.7833,1483000
Amsterdam,52.3728,4.8936,1477213
Vijayawada,16.5193,80.6305,1476931
Zapopan,20.7167,-103.4000,1476491
Daejeon,36.3500,127.3850,1475221
Bronx,40.8501,-73.8662,1472654
Auckland,-36.8492,174.7653,1470100
Yekaterinburg,56.8356,60.6128,1468833
Wuwei,37.9290,102.6380,1464955
Jinhua,29.0790,119.6470,1463990
Kyoto,35.0117,135.7683,1463723
Pizhou,34.3980,117.8900,1458038
Yangshe,31.8767,120.5560,1447600
Dakar,14.6726,-17.4320,1438725
Charlotte,35.2083,-80.8303,1436613
Yucheng,30.0100,103.0415,1434603
Kayseri,38.7225,35.4875,1434357
Virginia Beach,36.7335,-76.0435,1431821
Rui'an,27.7833,120.6250,1424667
Muscat,23.6139,58.5922,1421409
Kharkiv,49.9925,36.2311,1421125
Pointe-Noire,-4.7975,11.8503,1420612
Medina,24.4700,39.6100,1411599
Sangereng,-6.2889,106.7181,1404785
Faridabad,28.4211,77.3078,1404653
Sofia,42.6979,23.3217,1404116
Ulaanbaatar,47.9214,106.9055,1396288
Adelaide,-34.9275,138.6000,1387290
Prague,50.0875,14.4214,1384732
Wenling,28.3667,121.3667,1366794
Copenhagen,55.6805,12.5615,1366301
Najafgarh,28.6125,76.9847,1365152
Lianjiang,21.7333,110.2833,1363470
Helsinki,60.1708,24.9375,1360075
Samsun,41.2903,36.3336,1356079
Milan,45.4669,9.1900,1354196
Antalya,36.8874,30.7075,1344000
Santiago,19.4572,-70.6889,1343423
Chizhou,30.6654,117.4916,1342764
Makassar,-5.1331,119.4136,1338663
Porto Alegre,-30.0328,-51.2300,1332845
Huangshan,29.7149,118.3376,1330565
Gaozhou,21.9244,110.8422,1328657
Barranquilla,10.9833,-74.8019,1326588
Al Basrah,30.5150,47.8100,1326564
Benxi,41.3039,123.7649,1326018
Saitama,35.8614,139.6456,1325843
Ahvaz,31.3047,48.6783,1325000
Guarulhos,-23.4667,-46.5333,1324781
Leizhou,20.9143,110.0967,1321091
Juarez,31.7450,-106.4850,1321004
Mandalay,21.9831,96.0844,1319452
Yangquan,37.8571,113.5804,1318505
Fuqing,25.7167,119.3833,1316000
Xintai,35.9090,117.7680,1315942
Wusong,30.9450,117.8110,1311726
Tongling,30.9456,117.8114,1311726
Calgary,51.0500,-114.0667,1306784
Meerut,28.9800,77.7100,1305429
Jacksonville,30.3322,-81.6749,1303156
Kuaidamao,41.7283,125.9397,1302778
Huazhou,21.6640,110.6396,1291668
Milwaukee,43.0642,-87.9675,1290221
Wuzhong,37.9978,106.1986,1284000
Belem,-1.4558,-48.5039,1280614
Cacuaco,-8.8053,13.2444,1279488
Rosario,-32.9575,-60.6394,1276000
Tangier,35.7767,-5.8039,1275428
Antananarivo,-18.9100,47.5250,1275207
Canagatan,18.0000,121.8000,1273219
Soweto,-26.2678,27.8585,1271628
Providence,41.8230,-71.4187,1270529
Xiantao,30.3280,113.4430,1268715
Jabalpur,23.1667,79.9333,1267564
Huaiyin,33.5819,119.0280,1264000
Yutan,28.2780,112.5520,1263332
Kazan,55.7964,49.1089,1259173
Bagam,1.1300,104.0531,1256610
Dayan,26.8552,100.2259,1253878
Comayaguela,14.0980,-87.2100,1250000
Brussels,50.8467,4.3525,1249597
Laiwu,36.1833,117.6667,1248636
Huazhou,32.6880,112.0870,1247807
Sharjah,25.3575,55.3908,1247749
Kalyan,19.2400,73.1300,1246381
Rucheng,32.2460,120.5910,1241700
Barquisimeto,10.0636,-69.3347,1240714
Yongcheng,33.9299,116.4500,1240382
Sumedang,-6.8400,107.9208,1240000
Can Tho,10.0333,105.7833,1237300
Suwon,37.2667,127.0167,1234300
Yiwu,29.3069,120.0753,1234015
Vasai-Virar,19.4700,72.8000,1221233
Campinas,-22.9009,-47.0573,1213792
Dadukou,26.5824,101.7184,1212203
Lingcheng,22.7080,110.3540,1211637
Shuangyashan,46.6762,131.1416,1208803
Nizhniy Novgorod,56.3269,44.0075,1204985
Panipat,29.3875,76.9700,1202811
Qom,34.6400,50.8764,1201158
Mombasa,-4.0500,39.6667,1200000
Hargeysa,9.5600,44.0650,1200000
Baidoa,3.1167,43.6500,1200000
Varanasi,25.3189,83.0128,1198491
Hiroshima,34.3914,132.4519,1198021
Chiang Mai,18.7953,98.9986,1198000
Belgrade,44.8178,20.4569,1197714
Maiduguri,11.8372,13.1542,1197497
Kalleli,9.2807,76.8697,1197412
Batam Centre,1.1272,104.0556,1196396
Pingdu,36.7769,119.9884,1191348
Rongcheng,26.2180,104.1030,1189813
Mbandaka,0.0478,18.2558,1187837
Xinyu,27.8186,114.9167,1186700
Doha,25.2867,51.5333,1186023
Shymkent,42.3167,69.5958,1184113
Tripoli,32.8872,13.1914,1183000
Srinagar,34.0900,74.7900,1180570
Nashville,36.1715,-86.7842,1178679
Chelyabinsk,55.1547,61.3758,1177058
Aurangabad,19.8800,75.3200,1175116
Cilacap,-7.7167,109.0170,1174964
Xinhualu,34.3964,113.7402,1172237
Salt Lake City,40.7776,-111.9311,1169033
Guankou,28.1637,113.6433,1168056
Bandar Lampung,-5.4500,105.2667,1166761
Dhanbad,23.7998,86.4305,1162472
Nay Pyi Taw,19.7475,96.1150,1160242
Aba,5.1167,7.3667,1160000
Jingling,30.6640,113.1670,1158640
Zhuji,29.7167,120.2333,1157938
Tegucigalpa,14.1057,-87.2040,1157509
Kigali,-1.9536,30.0606,1156663
Samara,53.2028,50.1408,1156659
Yingtan,28.2721,117.0395,1154223
Edmonton,53.5344,-113.4903,1151635
Raleigh,35.8324,-78.6429,1150010
Bishkek,42.8667,74.5667,1145044
Bujumbura,-3.3833,29.3667,1143202
Guyuan,36.0100,106.2570,1142142
Leiyang,26.4223,112.8598,1140675
Krasnodar,45.0333,38.9667,1138654
Rostov,47.2225,39.7100,1135968
Maputo,-25.9153,32.5764,1133200
Bukavu,-2.5061,28.8608,1133000
Amritsar,31.6400,74.8600,1132383
Shagamu,6.8333,3.6500,1132270
Aligarh,27.8800,78.0800,1131160
Zhangye,38.9248,100.4499,1131016
Ufa,54.7261,55.9475,1128787
Santo Domingo,18.4764,-69.8933,1128678
Ulsan,35.5500,129.3167,1127553
Rongcheng,29.8402,112.9048,1120822
Tbilisi,41.7225,44.7925,1118035
Guwahati,26.1722,91.7458,1116267
Fes,34.0433,-5.0033,1112072
Yingchuan,34.1420,113.4890,1109782
Ninh Binh,20.2500,105.8333,1106913
Yerevan,40.1814,44.5144,1106300
Mwanza,-2.5167,32.9000,1104521
Omsk,54.9833,73.3667,1104485
Mexicali,32.6633,-115.4678,1102342
Sevilla,37.3900,-5.9900,1100000
Ikare,7.5167,5.7500,1099931
Dingzhou,38.5160,114.9900,1095986
Tamale,9.4075,-0.8533,1095808
Yuyao,30.0500,121.1500,1095000
Goiania,-16.6806,-49.2564,1093007
Krasnoyarsk,56.0089,92.8719,1092851
Cologne,50.9364,6.9528,1087353
Ubungo,-6.7889,39.2056,1086912
Yicheng,31.3600,119.8150,1082929
Richmond,37.5295,-77.4756,1081248
Kisangani,0.5167,25.2000,1081000
Ezhou,30.3914,114.8949,1079353
Astana,51.1472,71.4222,1078362
Zhufeng,36.0000,119.4167,1078178
Nezahualcoyotl,19.4081,-99.0186,1077208
Nouakchott,18.0858,-15.9785,1077169
Haora,22.5800,88.3294,1077075
Tongjin,37.2333,127.2000,1076369
Ranchi,23.3600,85.3300,1073440
Ciudad Nezahualcoyotl,19.4006,-99.0148,1072676
Gwalior,26.2125,78.1775,1069276
Ottawa,45.4247,-75.6950,1068821
Haicheng,40.8824,122.6852,1067905
Jianguang,28.1958,115.7833,1065641
Goyang,37.6500,126.8000,1061929
Sendai,38.2682,140.8694,1061177
Xibeijie,39.7334,98.4943,1055706
Chandigarh,30.7500,76.7800,1055450
Voronezh,51.6717,39.2106,1051995
Managua,12.1364,-86.2514,1051236
Zhongwei,37.5002,105.1968,1046000
Jiancheng,30.3800,104.5300,1045900
Mersin,36.8000,34.6333,1040507
Shouguang,36.8570,118.7910,1039205
Liangshi,27.2600,111.7442,1038416
Sao Luis,-2.5300,-44.3028,1037775
Jodhpur,26.2800,73.0200,1033918
Memphis,35.1087,-89.9663,1033394
Matola,-25.9667,32.4667,1032197
Ogbomoso,8.1333,4.2500,1032000
Sanya,18.2533,109.5036,1031396
Rangapukur,25.5206,89.2147,1031388
Ashgabat,37.9375,58.3800,1030063
Enugu,6.5000,7.5000,1029400
Linhai,28.8500,121.1167,1028813
Perm,58.0000,56.3167,1026908
Shubra al Khaymah,30.1286,31.2422,1025569
Monrovia,6.3133,-10.8014,1021762
Islamabad,33.6931,73.0639,1014825
Xinyi,22.3549,110.9468,1013900
Thu Duc,10.8266,106.7609,1013795
Aqchah,36.9114,66.1858,1012000
Odesa,46.4920,30.7081,1010537
Raipur,21.2444,81.6306,1010087
Namangan,41.0011,71.6683,1010000
Changwon,35.2708,128.6631,1009998
Arequipa,-16.3989,-71.5369,1008290
Tshikapa,-6.4167,20.8000,1006387
Volgograd,48.7086,44.5147,1004763
Morelia,19.7683,-101.1894,1002461
Kota,25.1800,75.8300,1001694
Quetta,30.1833,67.0000,1001205
Oklahoma City,35.4676,-97.5136,1000207
Domaa-Ahenkro,7.2739,-2.8735,1000000
Bareilly,28.3667,79.4306,1000000
Liaoyuan,42.8880,125.1447,996903
Stockholm,59.3275,18.0547,995574
Bordeaux,44.8400,-0.5800,994920
Taixing,32.1590,120.0290,990200
Lilongwe,-13.9669,33.7873,989318
Port-au-Prince,18.5425,-72.3386,987310
Esenyurt,41.0342,28.6800,983571
Pekanbaru,0.5092,101.4453,983356
Bogor,-6.5966,106.7972,982469
Ciudad Guayana,8.3667,-62.6500,978202
Chiba,35.6073,140.1064,975014
Kirkuk,35.4667,44.4000,975000
Shuizhai,33.4658,114.8753,973197
Qianxi,27.0087,106.0323,970700
Hartford,41.7661,-72.6834,969171
Dnipro,48.4675,35.0400,968502
Baishan,41.9440,126.4147,968373
Narayanganj,23.6167,90.5000,967951
Gqeberha,-33.9581,25.6000,967677
Huilong,31.8700,121.7030,967313
Malaga,36.7194,-4.4200,967250
Marrakech,31.6300,-8.0089,966987
Louisville,38.1663,-85.6485,965005
Cebu City,10.3200,123.7500,964169
Asmara,15.3358,38.9411,963000
Coimbatore,11.0008,76.9633,959823
Maceio,-9.6658,-35.7350,957916
Nada,19.5209,109.5808,954259
Fangchenggang,21.6867,108.3547,953300
Solapur,17.6800,75.9200,951558
Freetown,8.4833,-13.2331,951000
Kaiyuan,36.0193,113.8600,950939
Buffalo,42.9018,-78.8487,949547
Santo Domingo Este,18.4855,-69.8734,948855
Vientiane,17.9800,102.6300,948487
Kermanshah,34.3369,47.0911,946651
Kibanseke Premiere,-4.4419,15.3950,946372
Seberang Jaya,5.3909,100.4104,946092
Sale,34.0333,-6.8000,945101
Hubli,15.3502,75.1376,943788
El Alto,-16.5047,-68.1633,943000
Cankaya,39.9244,32.8856,942553
Hwasu-dong,37.1997,126.8314,941489
Yingcheng,24.2100,113.4010,941325
Fort Worth,32.7817,-97.3474,941311
Setagaya,35.6466,139.6532,940071
Kecioren,40.0000,32.8667,939279
Luocheng,22.7689,111.5697,936931
Jerusalem,31.7789,35.2256,936425
Khartoum North,15.6333,32.6333,936349
Meishan,34.1670,112.8440,936000
Mushin,6.5333,3.3500,935400
Trujillo,-8.1120,-79.0288,935147
Kitakyushu,33.8833,130.8833,935084
Aguascalientes,21.8760,-102.2960,934424
Khulna,22.8167,89.5500,928891
Chihuahua,28.6369,-106.0769,925762
Bridgeport,41.1918,-73.1954,921660
Xin'an,34.2860,118.3550,920628
Mysore,12.3086,76.6531,920550
Kashgar,39.4681,75.9938,920000
Songnam,37.4333,127.1500,918771
New Orleans,30.0687,-89.9288,918752
Trichinopoly,10.7903,78.7047,916857
Cartagena,10.4000,-75.5000,914552
Qingzhou,36.6853,118.4796,914047
Naples,40.8358,14.2486,913462
Santiago del Estero,-27.7833,-64.2667,911506
Naucalpan de Juarez,19.4753,-99.2378,910407
Masbate,12.2700,123.5800,908920
Owerri,5.4850,7.0350,908109
Taishan,22.2520,112.7940,907744
Jiaozhou,36.2647,120.0334,907500
Wuchuan,21.4410,110.7790,907354
Wafangdian,39.6271,121.9796,905082
La Plata,-34.9211,-57.9544,904789
Bobo-Dioulasso,11.1833,-4.2833,903887
Ad Dammam,26.4333,50.1000,903312
Hanchuan,30.6667,113.8333,903296
Quzhou,28.9702,118.8593,902767
Donetsk,48.0028,37.8053,901645
Ashmun,30.2974,30.9764,901191
Bunia,1.5667,30.2500,900666
Wuchang,44.9240,127.1580,897705
Sao Goncalo,-22.8269,-43.0539,896744
Hengzhou,22.6799,109.2614,896099
Feicheng,36.1861,116.7719,894115
Bucaramanga,7.1333,-73.0000,893040
Cazenga,-8.8214,13.2911,892401
Merida,20.9667,-89.6167,892363
Hegang,47.3501,130.2980,891271
Osmangazi,40.1983,29.0600,891250
Moradabad,28.8319,78.7764,889810
Bangui,4.3733,18.5628,889231
Abeokuta,7.1608,3.3483,888924
Cancun,21.1606,-86.8475,888797
Zaoyang,32.1290,112.7720,888794
Dongtai,32.7950,120.5190,888410
Antipolo,14.5842,121.1763,887399
Taguig City,14.5200,121.0500,886722
Tabuk,28.3972,36.5789,886036
Xishan,27.6461,113.4970,885987
Zhoushan,29.9856,122.2074,882932
Panama City,8.9711,-79.5347,880691
Tucson,32.1541,-110.8787,879871
Yichun,47.7280,128.8410,878881
As Sulaymaniyah,35.5500,45.4333,878146
Klang,3.0223,101.5481,878000
Tiruppur,11.1085,77.3411,877778
Marseille,43.2964,5.3700,877215
Gurgaon,28.4560,77.0290,876824
Yangchun,22.1704,111.7916,875896
Ar Ramadi,33.4258,43.2992,874543
Hai'an,32.5350,120.5630,874334
Jalandhar,31.3260,75.5762,873725
Daye,30.0961,114.9804,871214
Zhongxiang,31.1680,112.5880,868897
Gaomi,36.3833,119.7500,868715
Teresina,-5.0903,-42.8167,868075
Lhasa,29.6534,91.1719,867891
Ipoh,4.6000,101.0650,866772
Saltillo,25.4231,-100.9919,864431
Aden,12.8000,45.0333,863000
El Paso,31.8476,-106.4300,862494
Gongzhuling,43.5053,124.8224,862313
Lianyuan,27.6920,111.6640,862099
Ikeja,6.6000,3.3500,861300
Tyumen,57.1500,65.5333,861100
Cochabamba,-17.3883,-66.1597,856198
Portsmouth,50.8058,-1.0872,855679
Southampton,50.9025,-1.4042,855569
Hermosillo,29.0989,-110.9542,855563
Cheongju,36.6333,127.4833,852018
Shache,38.4261,77.2500,851374
Thanh Hoa,19.8075,105.7764,850000
Macheng,31.1730,115.0080,849090
Akure,7.2500,5.1950,847903
Ilorin,8.5000,4.5500,847582
Erbil,36.1911,44.0094,846000
Kathmandu,27.7100,85.3200,845767
Turin,45.0792,7.6761,841600
Anqiu,36.4780,119.2190,840553
Yuci,37.6823,112.7281,840000
Dehui,44.5350,125.7030,839786
Pietermaritzburg,-29.6167,30.3833,839327
Durban,-29.8833,31.0500,838634
Saratov,51.5300,46.0350,838042
Bhubaneshwar,20.2700,85.8400,837737
Yushu,44.8260,126.5500,836098
Joao Pessoa,-7.1200,-34.8800,833932
Samarinda,-0.5000,117.1378,831460
Omaha,41.2627,-96.0529,826161
Qingping,34.5390,113.3910,826031
Rongjiawan,29.1500,113.1024,826000
Weichanglu,37.1792,119.9333,824708
Sakai,34.5733,135.4831,824408
Eskisehir,39.7767,30.5206,820568
Renqiu,38.6860,116.0840,816401
Wutong,30.6333,120.5333,815848
Barcelona,10.1403,-64.6833,815141
Wu'an,36.6970,114.2040,811631
Sao Bernardo do Campo,-23.6939,-46.5650,810729
McAllen,26.2252,-98.2467,810034
Narela,28.8500,77.1000,809913
Bhayandar,19.2900,72.8500,809378
Culiacan,24.8069,-107.3939,808416
N'Djamena,12.1053,15.0447,807000
Xiashi,30.5333,120.6833,806966
Cucuta,7.8942,-72.5039,806378
Danyang,32.0000,119.5860,806300
Dongyang,29.2667,120.2167,804398
Krakow,50.0614,19.9372,804237
Oran,35.6969,-0.6331,803329
Pasig City,14.5605,121.0765,803159
Thessaloniki,40.6403,22.9356,802572
Blantyre,-15.7861,35.0058,800264
Palermo,2.8917,-75.4375,800000
Qamdo,31.1430,97.1700,798067
Karimnagar,18.4386,79.1288,797447
Libreville,0.3901,9.4544,797003
Hejian,38.4466,116.0995,795198
Seyhan,36.9831,35.3328,795012
Laiyang,36.9758,120.7136,794986
Queretaro,20.5875,-100.3928,794789
Wuxi,26.5800,111.8410,791939
Yiyang,26.4221,112.3999,790676
Niigata,37.9161,139.0364,790646
Vinh,18.6667,105.6667,790000
Puxi,35.2125,114.7350,789300
Hempstead,40.6629,-73.6089,789177
Hamamatsu,34.7108,137.7275,788211
Zijinglu,34.7667,112.9667,785242
Kumila,35.2500,73.5000,784711
Xingyi,25.0920,104.8955,783120
Xingcheng,24.1347,115.7300,779411
Birmingham,33.5279,-86.7971,778756
Ailan Mubage,43.9080,81.2777,778047
Lubango,-14.9167,13.5000,776249
Frankfurt,50.1106,8.6822,775790
Homs,34.7319,36.7181,775404
Bilbao,43.2569,-2.9236,775000
San Luis Potosi,22.1511,-100.9761,772828
Bucheon,37.5000,126.7833,772450
Fuyang,30.0553,119.9500,771000
Korla,41.7259,86.1746,770000
Khujand,40.2833,69.6333,770000
Hamhung,39.9167,127.5333,768551
Erzurum,39.9086,41.2769,767848
Albuquerque,35.1054,-106.6465,767499
Zagreb,45.8131,15.9772,767131
Al `Ayn,24.2075,55.7447,766936
Dodoma,-6.1731,35.7419,765179
Pikine,14.7440,-17.4021,764597
Patiala,30.3400,76.3800,763280
Bahawalpur,29.3956,71.6836,762111
Qingnian,36.8494,115.7061,760781
Sanhe,40.0167,117.0833,760107
Kaduna,10.5167,7.4333,760084
Winnipeg,49.8844,-97.1464,758515
Baardheere,2.3447,42.2764,755500
Shishgarh,28.7200,79.3200,753815
Leping,28.9780,117.1520,753787
Colombo,6.9167,79.8333,752993
Nerima,35.7356,139.6517,752608
Natal,-5.7950,-35.2089,751300
Lichuan,30.2910,108.9364,750670
Pendik,40.8747,29.2350,750435
Gdansk,54.3475,18.6453,749786
Licheng,31.4306,119.4788,749522
Santo Andre,-23.6533,-46.5280,748919
Andijon,40.7833,72.3333,747800
Gaalkacyo,6.7697,47.4308,745000
Ota-ku,35.5614,139.7161,744849
Thiruvananthapuram,8.5241,76.9366,743691
Nampula,-15.1167,39.2667,743000
Zhuanghe,39.6810,122.9670,742496
Kyaukse,21.6131,96.1303,741071
Tulsa,36.1283,-95.9042,740620
Chengguan,35.4623,113.8054,740435
Bagcilar,41.0344,28.8564,740069
Bouake,7.6833,-5.0331,740000
Cabinda,-5.5600,12.1900,739182
Kumamoto,32.8031,130.7078,738385
Kerman,30.2625,57.0575,738374
Lingbao Chengguanzhen,34.5176,110.8942,736300
Orumiyeh,37.5439,45.0647,736224
Quebec City,46.8139,-71.2081,733156
Taihe,30.8710,105.3880,732380
Yanggok,37.6333,127.2167,732376
Zhongba,31.7710,104.7550,731343
Osogbo,7.7667,4.5667,731000
Sizhan,38.9846,106.3828,730400
Suohe,34.7833,113.3500,730135
Xiangxiang,27.7186,112.5502,730103
Hamilton,43.2567,-79.8692,729560
Songyang,34.4553,113.0253,729332
Cagayan de Oro,8.4800,124.6500,728402
Qian'an,39.9990,118.7010,728160
Shuangqiao,35.0670,112.6020,727265
Chaohucun,31.6244,117.8902,727162
Manama,26.2233,50.5875,727000
Zouping,36.8630,117.7430,726722
Charleston,32.8168,-79.9687,726389
Uvira,-3.4000,29.1500,726000
Durgapur,23.5500,87.3200,726000
An Najaf,32.0290,44.3396,724700
Fresno,36.7830,-119.7939,724547
Cencheng,22.9167,111.0000,724364
Umraniye,41.0311,29.1081,723760
Sorocaba,-23.5019,-47.4578,723574
Guli,28.9000,120.0333,723490
Sagamihara,35.5667,139.3667,722973
Laixi,36.8667,120.5333,720103
Okayama,34.6500,133.9167,720043
Concepcion,-36.8282,-73.0514,719944
San Pedro Sula,15.5062,-88.0249,719064
Mississauga,43.6000,-79.6500,717961
Changsha,22.3773,112.6982,717700
Lviv,49.8425,24.0322,717273
Shihezi,44.3054,86.0804,717000
Valenzuela,14.7000,120.9800,714978
Huambo,-12.7767,15.7347,713134
Xichang,27.8944,102.2644,712434
Guangshui,31.6170,113.8260,710900
Zaporizhzhia,47.8500,35.1175,710052
Bhiwandi,19.2967,73.0631,709665
Gaoyou,32.8450,119.5080,709572
Chengxiang,31.5640,121.1740,709500
Bhilwara,25.3500,74.6300,709483
Oslo,59.9133,10.7389,709037
George Town,5.4136,100.3294,708127
Bristol,51.4536,-2.5975,707412
Zunhua,40.1890,117.9660,707047
Saharanpur,29.9639,77.5458,705478
Yenimahalle,39.9719,32.8119,704652
Warangal,17.9689,79.5941,704570
Nampo,38.7356,125.4089,703317
Dasmarinas,14.3300,120.9400,703141
Shiliguri,26.7100,88.4300,701489
Boosaaso,11.2800,49.1800,700906
Parachinar,33.9000,70.1000,700000
Latakia,35.5400,35.7800,700000
Tongchuan,34.8970,108.9450,698322
Xindi,29.8270,113.4760,698188
Edogawa,35.7000,139.8833,697932
General Santos,6.1200,125.1700,697315
Hamah,35.1503,36.7300,696863
Rochester,43.1680,-77.6162,694707
Bauchi,10.5000,10.0000,693700
Salem,11.6500,78.1500,693236
Sinnuris,29.4072,30.8667,692701
Cocody,5.3351,-4.0039,692583
Lokoja,7.8019,6.7442,692050
Guadalupe,25.6775,-100.2597,691931
Selcuklu,37.8814,32.4922,690667
Karbala',32.6167,44.0333,690100
Borvayeh-ye Al Bu `Aziz,31.6283,48.6147,690000
City of Paranaque,14.5008,120.9915,689992
Taihecun,45.7710,131.0030,689611
Mamak,39.9422,32.9231,687535
Jianshe,34.2137,113.7629,687130
Zaragoza,41.6500,-0.8833,686986
Shishi,24.7167,118.7000,685930
Shizuoka,34.9756,138.3828,685589
Agege,6.6219,3.3258,683600
Mar del Plata,-38.0000,-57.5500,682605
Adachi,35.7833,139.8000,682326
Pontianak,-0.0206,109.3414,680880
Rasht,37.2744,49.5889,679995
Xigaze,29.2500,88.8833,679771
Cotonou,6.3667,2.4333,679012
Tasikmalaya,-7.3161,108.1975,678027
Kochi,9.9312,76.2673,677381
Soledad,10.9167,-74.7500,676014
Shanhu,29.6000,120.8167,675226
Gothenburg,57.7075,11.9675,674529
Acapulco de Juarez,16.8636,-99.8825,673478
Gorakhpur,26.7637,83.4039,673446
Bahar,34.9078,48.4394,673405
Wroclaw,51.1100,17.0325,672929
Murcia,37.9861,-1.1303,672773
Pinghu,30.7000,121.0167,671326
Guankou,30.9880,103.6470,671200
Lodz,51.7769,19.4547,670642
Yatou,37.1653,122.4867,670251
Denpasar,-8.6717,115.2339,670210
Guntur,16.3008,80.4428,670073
Tolyatti,53.5089,49.4222,667956
Dayton,39.7805,-84.2003,667936
Ch'ongjin,41.7833,129.7667,667929
Zhaodong,46.0510,125.9620,666532
Puyang Chengguanzhen,35.7004,114.9800,666322
Bulawayo,-20.1700,28.5800,665952
Aracaju,-10.9111,-37.0717,664908
Bacoor,14.4624,120.9645,664625
Rotterdam,51.9200,4.4800,664311
Tlaquepaque,20.6167,-103.3167,664193
Villavicencio,4.1500,-73.6333,664148
Campo Grande,-20.4686,-54.6222,663621
Jingcheng,32.0090,120.2630,663408
Makhachkala,42.9825,47.5050,662660
Banjarmasin,-3.3200,114.5925,662230
Kitwe,-12.8167,28.2000,661901
Catia La Mar,10.6000,-67.0333,661897
Nneyi-Umuleri,6.3333,6.8333,660821
Al Hufuf,25.3608,49.5997,660788
Dali,25.6811,100.3003,660300
Jalingo,8.9000,11.3667,660213
Sargodha,32.0836,72.6711,659862
Karaikandi,24.8309,92.6143,659260
Ch'onan,36.8100,127.1475,656583
Brampton,43.6833,-79.7667,656480
Cape Coral,26.6443,-81.9957,656464
Haldwani,29.2200,79.5200,656000
Abomey-Calavi,6.4486,2.3556,655965
Yildirim,40.1100,29.0821,655856
Dhulia,20.8997,74.7697,655603
Zhongshu,27.7919,106.4013,655300
Durango,24.0250,-104.6675,654876
Songzi,30.1740,111.7570,654762
Tondo,14.6170,120.9670,654220
Dayrut,27.5564,30.8106,653847
Tlalnepantla,19.5367,-99.1947,653410
Xiping,25.6005,103.8166,652604
Osasco,-23.5328,-46.7919,652593
Hue,16.4619,107.5955,652572
San Jose del Monte,14.8139,121.0453,651813
Denizli,37.7833,29.0964,651200
Maturin,9.7500,-63.1830,647459
Honcho,35.6946,139.9826,644668
Wuxue,29.8440,115.5610,644247
Bhavnagar,21.7600,72.1500,643382
Jinghong,22.0090,100.7970,642737
Wugang,26.7266,110.6319,640181
Sha Tin,22.3802,114.1898,640000
Provo,40.2457,-111.6457,639820
Chisinau,47.0228,28.8353,639000
Petaling Jaya,3.0833,101.6500,638516
Colorado Springs,38.8674,-104.7605,638421
Tallinn,59.4372,24.7453,638076
Noida,28.57,77.32,637272
Las Palmas,28.1258,-15.4353,635000
Mission Viejo,33.6096,-117.6551,634674
Bhangar,22.5800,88.4200,634107
Allentown,40.5961,-75.4756,632175
Benghazi,32.1167,20.0667,631555
Chuxiong,25.0330,101.5459,631530
Dusseldorf,51.2256,6.7767,631217
Palermo,38.1157,13.3613,630167
Baton Rouge,30.4420,-91.1311,630063
Makati City,14.5567,121.0214,629616
Ndola,-12.9689,28.6325,627503
Tukh,30.3549,31.2011,627290
Glasgow,55.8611,-4.2500,626410
Bazal'tove,50.6765,26.1600,625543
Al Qatif,26.5196,50.0115,625092
Bhilai,21.2100,81.3800,624700
Mangalore,12.8717,74.8425,623841
Kaihua,23.3870,104.2330,623772
Irkutsk,52.2892,104.2800,623736
Ogden,41.2279,-111.9682,623688
Meilan,19.9990,110.4030,623667
Ansan,37.3167,126.8333,623256
Barnaul,53.3486,83.7764,623057
Bazhou,39.1333,116.3833,622975
Turpan,42.9512,89.1895,622903
Jos,9.9167,8.8903,622802
Langzhong,31.5580,106.0050,622667
Qufu,35.5819,116.9862,621971
Al Mansurah,31.0500,31.3833,621953
Tengyue,25.0167,98.4833,620000
Leipzig,51.3400,12.3750,619879
Halwan,29.8493,31.3327,619293
Tan An,10.9050,106.6994,618984
Port-Bouet,5.2568,-3.9630,618795
Izhevsk,56.8333,53.1833,618776
Knoxville,35.9692,-83.9496,618226
Jurong,31.9460,119.1640,617706
Arusha,-3.3667,36.6833,617631
Bihta,25.5619,84.8700,617427
Yuhuan,28.1277,121.2288,616346
Khabarovsk,48.4833,135.0833,615570
Etimesgut,39.9458,32.6694,614891
Changping,40.2248,116.1944,614821
Chimalhuacan,19.4131,-98.9839,614453
Kandahar,31.6200,65.7158,614254
Oujda-Angad,34.6867,-1.9114,614000
Ruiming,25.8860,116.0270,613894
Serang,-6.1200,106.1503,613356
Ulyanovsk,54.3167,48.3667,613334
Shenzhou,38.0020,115.5600,613000
Jambi,-1.5900,103.6100,612162
Hasanpur,28.7200,78.2800,611533
Grand Rapids,42.9619,-85.6562,611480
Yukarikaraman,36.9167,30.6833,608675
Kuantan,3.8300,103.3200,607778
Gold Coast,-28.0167,153.4000,607665
Kawaguchi,35.8077,139.7241,607373
Dashiqiao,40.6167,122.5167,607098
Las Pinas City,14.4500,120.9800,606293
Cuttack,20.5236,85.7881,606007
San Miguel de Tucuman,-26.8167,-65.2167,605767
Ar Rayyan,25.2500,51.4000,605712
Riga,56.9475,24.1069,605273
Columbia,34.0378,-80.9036,605083
Salimpur,26.3000,83.9167,604483
Malanje,-9.5333,16.3500,604215
Kryvyi Rih,47.9100,33.3900,603904
Djibouti,11.5944,43.1481,603900
Zhuozhou,39.4850,115.9740,603535
Tianchang,32.6811,119.0137,602840
Albany,42.6664,-73.7987,602242
Bacolod,10.6765,122.9509,600783
Garoua,9.3000,13.4000,600000
Bamenda,5.9614,10.1517,600000
Bafoussam,5.4667,10.4167,600000
Haifa,32.8192,34.9992,600000
Raurkela,22.2492,84.8828,600000
Tunis,36.8064,10.1817,599368
Tumkur,13.3400,77.1000,599078
Balikpapan,-1.2768,116.8277,598043
Somolu,6.5408,3.3872,597400
Sanliurfa,37.1583,38.7917,596637
Dortmund,51.5139,7.4653,595471
Al Mukalla,14.5333,49.1333,594951
Xinji,37.9430,115.2180,594628
Melikgazi,38.7167,35.5000,594344
Kagoshima,31.5969,130.5572,593754
Wenchang,31.0358,116.9367,593629
Sihui,23.3265,112.7338,593400
Irapuato,20.6667,-101.3500,592953
Dublin,53.3497,-6.2603,592713
Al Mahallah al Kubra,30.9667,31.1667,592573
Sialkot City,32.4925,74.5311,591668
Vladivostok,43.1150,131.8853,591628
Luocheng,30.9900,104.2500,591115
Pereira,4.8143,-75.6946,590554
Gaza,31.5069,34.4560,590481
Reynosa,26.0922,-98.2778,589466
Zahedan,29.5025,60.8558,587730
Essen,51.4508,7.0131,586608
Cimahi,-6.8712,107.5548,586580
Wenlan,23.3961,103.3649,585976
Itabashi,35.7667,139.6833,584483
Shah Alam,3.0667,101.5500,584340
Suginami-ku,35.6994,139.6364,583609
Jaboatao dos Guararapes,-8.1128,-35.0150,581556
Vilnius,54.6872,25.2800,581475
Kingston,17.9714,-76.7931,580000
Al Mafraq,32.3399,36.2052,580000
At Ta'if,21.2667,40.4167,579970
Port Sudan,19.6158,37.2164,579942
Nha Trang,12.2450,109.1917,579000
Tuxtla,16.7528,-93.1167,578830
Bakersfield,35.3529,-119.0359,578542
Dehra Dun,30.3450,78.0290,578420
Bremen,53.0758,8.8072,577026
Fu'an,27.1000,119.6333,577000
Mymensingh,24.7504,90.3800,576927
Hachioji,35.6664,139.3160,575721
Iloilo,10.7200,122.5700,574000
Puente Alto,-33.6167,-70.5667,573935
Botou,38.0833,116.5833,573842
Rabat,34.0209,-6.8416,572717
Sincan,39.9594,32.5767,572609
Kabinda,-6.1300,24.4800,572000
Kottayam,9.5916,76.5222,571856
Kahramanmaras,37.5833,36.9333,571266
Shibin al Qanatir,30.3127,31.3202,570868
Tonala,20.6167,-103.2333,569913
Abu Hummus,31.0931,30.3142,569157
Irbid,32.5500,35.8500,569068
Jin'e,29.3394,105.2875,568900
Macau,22.2006,113.5461,568700
Xinxing,39.8667,124.1500,568566
Surrey,49.1900,-122.8489,568322
Yaroslavl,57.6167,39.8500,567443
Qionghu,28.9450,112.5980,567159
Dresden,51.0500,13.7400,566222
Xinmin,41.9970,122.8230,565634
New Haven,41.3113,-72.9246,565056
Antwerp,51.2178,4.4003,565039
Kuiju,36.8667,119.4000,564501
Asansol,23.6800,86.9900,563917
Bokaro Steel City,23.6700,86.1500,563417
Jieshou,33.2570,115.3746,561956
Bello,6.3333,-75.5667,561955
Kolhapur,16.6917,74.2333,561489
Wencheng,19.6170,110.7551,560894
Miluo Chengguanzhen,28.7610,113.1600,560725
Lanxi,29.2080,119.4580,560514
Zhenzhou,32.2723,119.1848,560258
Des Moines,41.5725,-93.6105,560170
Nava Raipur,21.1610,81.7870,560000
Gaizhou,40.4000,122.3500,559271
Leling,37.7300,117.2320,559166
Genoa,44.4072,8.9340,558745
Ensenada,31.8578,-116.6058,557430
Herat,34.3419,62.2031,556205
Uyo,5.0333,7.9275,554906
Hamadan,34.8064,48.5161,554406
Chiclayo,-6.7630,-79.8366,552508
Surakarta,-7.5667,110.8167,552118
Ajmer,26.4499,74.6399,551101
Braunschweig,52.2667,10.5167,551000
Nanded,19.1500,77.3000,550439
Wuhai,39.6550,106.7940,550000
Palma,39.5667,2.6500,550000
Rustenburg,-25.6667,27.2428,549575
Amravati,20.9258,77.7647,549370
Lisbon,38.7122,-9.1340,548703
Yanji,42.9000,129.5000,548700
The Hague,52.0800,4.3100,548320
Hannover,52.3667,9.7167,548186
Sevastopol,44.6050,33.5225,547820
Palm Bay,27.9631,-80.6593,547659
Manchester,53.4790,-2.2452,547627
Nellore,14.4431,79.9861,547621
Poznan,52.4083,16.9336,546859
Ibague,4.4333,-75.2333,546003
Wancheng,18.8000,110.4000,545992
Tomsk,56.5000,84.9667,545391
Sungai Petani,5.6497,100.4793,544851
Xinshi,31.1333,113.1167,544843
Kemerovo,55.3667,86.0667,544600
Naberezhnyye Chelny,55.6833,52.3167,544383
Valledupar,10.4833,-73.2500,544134
Muntinlupa City,14.3800,121.0500,543445
K'ebri Beyah,9.0833,43.0833,543272
Luofeng,37.3590,120.3960,543127
Ghulja,43.9000,81.3500,542507
Ixtapaluca,19.3186,-98.8822,542211
Fuding,27.2000,120.2000,542000
Heroica Matamoros,25.8797,-97.5042,541979
Mbeya,-8.9000,33.4500,541603
An Nasiriyah,31.0439,46.2575,541600
Al Hillah,32.4833,44.4333,541034
Lingyuan,41.2500,119.4000,540832
Juiz de Fora,-21.7642,-43.3503,540756
Guixi,28.2925,117.2454,540572
City of Calamba,14.2200,121.1700,539671
Sao Jose dos Campos,-23.1789,-45.8869,539313
Akron,41.0798,-81.5219,538659
El Geneina,13.4500,22.4400,538390
Contagem,-19.9319,-44.0539,538017
Santa Cruz,28.4667,-16.2500,538000
Agadir,30.4214,-9.5831,538000
Orenburg,51.7833,55.1000,536862
Nilufer,40.2833,28.9500,536365
Leeds,53.7975,-1.5436,536280
Kassala,15.4500,36.4000,536009
Aksu,41.1850,80.2904,535657
Salta,-24.7833,-65.4167,535303
Dispur,26.1397,91.7925,534872
Gulbarga,17.3290,76.8250,533587
Nansana,0.3639,32.5286,532800
Kimhae,35.2342,128.8811,531966
Novokuznetsk,53.7667,87.1333,531186
Beira,-19.8333,34.8500,530604
Balashikha,55.8167,37.9667,530311
Yazd,31.8822,54.3397,529673
Ardabil,38.2517,48.2975,529374
Touba,14.8667,-15.8833,529176
Bikaner,28.0167,73.3119,529007
Gaobeidian,39.3270,115.8740,528903
Mixco,14.6331,-90.6064,527828
Himeji,34.8167,134.6833,527596
Bandar `Abbas,27.1961,56.2878,526648
Nuremberg,49.4539,11.0775,526091
Concord,37.9722,-122.0016,525233
Van,38.4942,43.3800,525016
Port Said,31.2625,32.3061,524433
Koto-ku,35.6667,139.8167,523419
Ciudad Apodaca,25.7817,-100.1886,523370
Kitchener,43.4186,-80.4728,522888
Agartala,23.8314,91.2869,522613
Soacha,4.5872,-74.2214,522442
Buca,38.3500,27.1667,522404
Maipu,-33.5167,-70.7667,521627
Arak,34.0914,49.6933,520944
Lyon,45.7600,4.8400,520774
Tultitlan de Mariano Escobedo,19.6450,-99.1694,520557
Ryazan,54.6300,39.7425,520509
Meknes,33.8950,-5.5547,520428
Luanzhou,39.7410,118.7040,520102
Al Fayyum,29.3000,30.8333,519047
Utsunomiya,36.5550,139.8825,518197
Sheffield,53.3808,-1.4703,518090
Chanda,19.9500,79.2970,518000
Suez,29.9667,32.5333,516959
Heshan,22.7667,112.9500,516500
Loni,28.7500,77.2800,516082
Jiaji,19.2431,110.4642,515700
Qaraghandy,49.8028,73.1056,515632
Santa Marta,11.2419,-74.2053,515556
Ujjain,23.1700,75.7900,515215
Abu Tisht,26.1204,32.0954,514535
Samarkand,39.6547,66.9758,513572
Liverpool,53.4072,-2.9917,513441
Macapa,0.0330,-51.0500,512902
Benguela,-12.5500,13.4167,512886
Cuito,-12.3833,16.9333,512706
Al Fashn,28.8231,30.8990,512242
Toulouse,43.6045,1.4440,511684
Al `Amarah,31.8333,47.1500,511500
Carrefour,18.5333,-72.4000,511345
Campos,-21.7523,-41.3304,511168
Cadaado,6.1393,46.6241,510654
Meihekou,42.5407,125.7107,509336
Kenitra,34.2500,-6.5833,507736
Newcastle,-27.7464,29.9328,507710
Mesa,33.4015,-111.7178,507478
Jhansi,25.4486,78.5696,507000
Matsuyama,33.8333,132.7667,506743
Ulhasnagar,19.2200,73.1500,506098
Ribeirao Preto,-21.1776,-47.8101,504923
Pohang,36.0322,129.3650,503780
Duisburg,51.4347,6.7625,503707
Jammu,32.7300,74.8700,502197
Ile-Ife,7.4833,4.5592,501952
Wichita,37.6895,-97.3443,501760
Mazatlan,23.2167,-106.4167,501441
Uberlandia,-18.9189,-48.2769,501214
Homyel',52.4453,30.9842,501102
Farah,32.3436,62.1194,500000
Belas,-8.9983,13.2650,500000
Talatona,-8.9167,13.1833,500000
Nenjiang,49.1100,125.1300,500000
Tuticorin,8.8056,78.1450,500000
Asaba,6.1833,6.7333,500000
El Fasher,13.6300,25.3500,500000
Sukkur,27.7061,68.8483,499900
K'ebri Dehar,6.7333,44.2667,499500
Harrisburg,40.2752,-76.8843,499494
Taozhou,30.8956,119.4110,499132
Anlu,31.2667,113.6667,498356
Lapu-Lapu City,10.3127,123.9488,497604
Matsudo,35.7876,139.9032,497514
Johor Bahru,1.4820,103.7281,497097
Purnea,25.7780,87.4760,496830
Imus,14.4297,120.9367,496794
Niteroi,-22.8833,-43.1036,496696
Lipetsk,52.6167,39.6000,496403
Cheboksary,56.1500,47.2333,496350
Staten Island,40.5834,-74.1496,495747
Likasi,-10.9833,26.7333,495000
Xiangyang,34.2995,108.4905,494887
Jiangshan,28.7361,118.6250,494412
Duyun,26.2594,107.5186,493574
Pindi Bhattian,31.8958,73.2761,493222
Nyala,12.0500,24.8833,492984
Ichikawa,35.7219,139.9311,492749
Villa Nueva,14.5269,-90.5875,492480
Kumul,42.8193,93.5151,492096
Toledo,41.6638,-83.5827,492076
Bissau,11.8500,-15.5667,492004
Accra,5.5461,-0.2067,491817
Kota Bharu,6.1200,102.2300,491237
Higashi-osaka,34.6794,135.6008,490819
Larkana,27.5583,68.2111,490508
Xingcheng,40.6167,120.7333,490300
`Ajman,25.4136,55.4456,490035
Ciudad Lopez Mateos,19.5500,-99.2833,489937
Kaliningrad,54.7003,20.4531,489584
Yueqing,28.1200,120.9600,488980
Penza,53.2000,45.0000,488299
Belgaum,15.8500,74.5000,488157
Edinburgh,55.9500,-3.1833,488050
Yucheng,36.9340,116.6380,488014
Brookhaven,40.8320,-72.9517,487817
Worcester,42.2705,-71.8079,487014
Nishinomiya-hama,34.7376,135.3416,487010
Karamay,45.5799,84.8892,487000
Kawachicho,34.6794,135.6008,486464
Zhangshu,28.0546,115.5462,485649
Mingguang,32.7833,117.9667,485627
Malatya,38.3486,38.3194,485484
Garoowe,8.4000,48.4833,485000
Vellore,12.9165,79.1325,484690
Huanghua,38.3720,117.3300,484313
Encheng,22.1833,112.3000,483907
Lianran,24.9190,102.4780,483753
Kartal,40.8872,29.1900,483418
Cuiaba,-15.5958,-56.0969,483346
Akhmim,26.5667,31.7500,482666
Az Zarqa',32.0833,36.1000,481300
Malegaon,20.5500,74.5500,481228
Feira de Santana,-12.2669,-38.9669,480949
Hailun,47.4667,126.9667,480216
Valletta,35.8983,14.5125,480134
Kolwezi,-10.7167,25.4667,480000
Jamnagar,22.4700,70.0700,479920
Sylhet,24.9000,91.8667,479837
Ananindeua,-1.3658,-48.3719,478778
Berbera,10.4396,45.0143,478000
Chiniot,31.7194,72.9842,477781
Asuncion,-25.2945,-57.6435,477346
Chengjiao,35.3984,114.0649,476867
Bardoli,21.1200,73.1200,475963
Bratislava,48.1447,17.1128,475503
Kurashiki,34.5850,133.7722,474862
Oita,33.2333,131.6067,474804
Al Jubayl,27.0046,49.6460,474679
Worthing,50.8147,-0.3714,474485
Gaya,24.7500,85.0100,474093
Port St. Lucie,27.2796,-80.3884,473733
Xiulin,29.7209,112.4254,473707
Shekhupura,31.7111,73.9878,473129
Piura,-5.2000,-80.6333,473025
Vila Velha,-20.3364,-40.2936,472762
Ar Rusayfah,32.0178,36.0464,472604
Kirov,58.6000,49.6833,471754
Morogoro,-6.8242,37.6633,471409
San Juan,-31.5342,-68.5261,471389
Mykolaiv,46.9750,31.9950,470011
Yicheng,31.7210,112.2570,469417
Fengcheng,40.4500,124.0667,469376
Mazar-e Sharif,36.7000,67.1167,469247
Xiaoyi,36.0833,111.5167,468770
Ba`qubah,33.7447,44.6436,467900
Katlehong,-26.3333,28.1500,467890
Tel Aviv-Yafo,32.0800,34.7800,467875
Jiangshandicun,28.7412,118.6225,467862
Little Rock,34.7256,-92.3577,467846
Qingzhen,26.5704,106.4687,467438
Buraydah,26.3664,43.9628,467410
Kupang,-10.1702,123.6077,466632
Tula,54.2000,37.6167,466609
Ambattur,13.1143,80.1548,466205
Nakhon Ratchasima,14.9806,102.1000,466098
Tan Uyen,11.0508,106.7636,466053
Astrakhan,46.3500,48.0350,465524
Longjiang,27.5819,120.5489,464695
Leicester,52.6361,-1.1331,464395
Rushan,36.8700,121.5050,464078
Shangzhi,45.2070,127.9650,463358
Angeles City,15.1472,120.5847,462928
Kuqa,41.7156,82.9322,462588
Kanazawa,36.5611,136.6564,462479
Manado Light,1.4858,124.8347,461636
Manado,1.4931,124.8413,461636
Kaiyuan,42.5460,124.0380,460927
Cranbourne,-38.0996,145.2834,460491
Jalgaon,21.0040,75.5680,460468
Madison,43.0822,-89.3930,460255
Chhatarpur,24.5500,79.3527,459943
Fukuyama,34.4858,133.3622,459576
Juba,4.8300,31.5800,459342
Lanus,-34.7000,-58.4000,459263
Spokane,47.6671,-117.4330,458988
Ta`izz,13.5789,44.0219,458789
Long Beach,33.7977,-118.1670,458491
Kikwit,-5.0386,18.8181,458000
Pyeongtaek,36.9922,127.1128,457873
Kurnool,15.8300,78.0500,457633
Marikina City,14.6500,121.1000,456059
Kagithane,41.0719,28.9664,455943
Amagasaki,34.7333,135.4000,455555
Melaka,2.2064,102.2465,455300
Denton,33.2175,-97.1418,455152
Ciudad General Escobedo,25.7933,-100.1583,454967
Reno,39.5497,-119.8483,454814
Manizales,5.0675,-75.5100,454494
Bornova,38.4697,27.2211,454470
Puerto La Cruz,10.2000,-64.6333,454312
Kahama,-3.8375,32.6000,453654
Hsinchu,24.8167,120.9833,453536
Gaoping,35.7980,112.9240,453054
Batman,37.8870,41.1320,452157
Demiryol,37.8870,41.1320,452157
Erkoklu,37.8870,41.1320,452157
Avcilar,40.9792,28.7214,452132
Kota Kinabalu,5.9800,116.1100,452058
Katsushika-ku,35.7333,139.8500,451772
Udaipur,24.5800,73.6800,451100
Mogi das Cruzes,-23.5228,-46.1931,450785
Stavropol,45.0500,41.9833,450680
General Trias,14.3800,120.8800,450583
Warder,6.9667,45.3500,450400
Sirajganj,24.4500,89.7167,450000
Wapi,20.3720,72.9170,450000
Bac Giang,21.2667,106.2000,450000
Boise,43.6005,-116.2308,449428
Zurich,47.3744,8.5411,448664
Constantine,36.3500,6.6000,448374
Nam Dinh,20.4200,106.1683,448225
Eslamshahr,35.5386,51.2228,448129
Rajshahi,24.3667,88.6000,448087
Piraeus,37.9430,23.6469,448051
Matadi,-5.8167,13.4833,448000
Zebediela,-24.3100,29.2700,448000
Shah Latif Town,24.8806,67.1625,447993
Tanbei,35.0880,112.9510,447487
Londrina,-23.3100,-51.1628,447065
Ado-Ekiti,7.6211,5.2214,446749
Bonita Springs,26.3558,-81.7859,445500
Esenler,41.0339,28.8903,445421
Sochi,43.5853,39.7203,444989
Santiago de Cuba,20.0217,-75.8294,444851
Rodriguez,14.7200,121.1200,443954
Chauddagram,23.2244,91.3731,443648
San Nicolas de los Garza,25.7500,-100.2833,443273
Taoyuan District,24.9913,121.3143,443273
Kissimmee,28.3041,-81.4169,442790
Baisha,29.4896,119.3370,442709
Ndjili,-4.4089,15.3775,442138
Mathura,27.4925,77.6736,441894
Meicheng,30.6310,116.5810,441224
Lembok,-8.5650,116.3510,441147
Korhogo,9.4578,-5.6294,440926
Pasay City,14.5439,120.9950,440656
Beipiao,41.8010,120.7710,439998
Jiannan,31.3333,104.2000,439958
Halifax,44.6475,-63.5906,439819
Fujisawa,35.3500,139.4667,439728
Augusta,33.3645,-82.0708,439361
Ulan-Ude,51.8333,107.6000,439128
Springfield,42.1155,-72.5395,438889
Laval,45.5833,-73.7500,438366
Oakland,37.7904,-122.2166,438072
Jinchang,38.5214,102.1880,438026
Sunch'on,39.4167,125.9333,437000
Nehe,48.4833,124.8833,436906
Kursk,51.7167,36.1833,436678
Sangli,16.8530,74.5830,436639
Lobito,-12.3500,13.5464,436467
Jeju,33.5130,126.5230,435413
Zhuangyuan,37.3056,120.8290,435405
Davangere,14.4666,75.9242,435125
Jian'ou,27.0333,118.3167,434451
Machida,35.5542,139.4431,434414
Winston-Salem,36.1029,-80.2610,434231
Sanghar,26.0442,68.9536,434087
Chang'an,29.4768,113.4504,433200
Al Maraghah,26.6998,31.6046,432678
Bandung,-6.9120,107.6097,432557
Shahe,36.8549,114.5033,431746
Calicut,11.2588,75.7804,431560
Windhoek,-22.5700,17.0836,431000
Joinvile,-26.3039,-48.8458,429604
Ismailia,30.5833,32.2667,429465
Cusco,-13.5250,-71.9722,428450
Veracruz,19.1903,-96.1533,428323
Sokoto,13.0833,5.2500,427760
Kashiwa,35.8676,139.9758,427603
Al Bajur,30.4305,31.0368,427017
Yan'an Beilu,44.0144,87.2674,426253
Mothihari,26.6500,84.9167,426158
Aomori,40.8228,140.7469,425962
Tepic,21.5083,-104.8931,425942
Akola,20.7000,77.0000,425817
Mandaluyong City,14.5800,121.0300,425758
Aves,41.3703,-8.4101,425411
Sihung,37.3799,126.8029,425184
Burco,9.5221,45.5336,425000
Tver,56.8625,35.9242,424969
Xalapa,19.5400,-96.9275,424755
Buenaventura,3.8772,-77.0267,423927
London,42.9836,-81.2497,423369
Piracicaba,-22.7252,-47.6493,423323
Tetouan,35.5667,-5.3667,422757
Yogyakarta,-7.8014,110.3644,422732
Ciudad Bolivar,8.1219,-63.5500,422578
Skopje,41.9961,21.4317,422540
Beining,41.6000,121.8000,422289
Toyota,35.0824,137.1563,422106
Daloa,6.8900,-6.4500,421871
Uijeongbu,37.7486,127.0389,421579
Hpa-An,16.8906,97.6333,421525
Laohekou,32.3590,111.6840,420495
Rahimyar Khan,28.4200,70.3000,420419
Ugep,5.8000,8.0833,420000
Thai Nguyen,21.6000,105.8500,420000
Seremban,2.7105,101.9400,419536
Kayapinar,37.9500,40.1667,419513
Campina Grande,-7.2306,-35.8811,419379
Xicheng,23.3667,103.1500,419314
Kowloon City,22.3282,114.1916,418732
Santos,-23.9608,-46.3339,418608
Tirana,41.3272,19.8186,418495
Kushtia,23.9000,89.1200,418312
El Obeid,13.1833,30.2167,418280
Maua,-23.6678,-46.4608,418261
Xingren,25.4350,105.1862,417919
Takamatsu,34.3500,134.0500,417814
Stockton,37.9765,-121.3109,416005
Ajdabiya,30.7700,20.2200,416000
Callao,-12.0522,-77.1392,415888
Awsim,30.1222,31.1333,415735
Shinagawa-ku,35.6000,139.7333,415729
Paju,37.8667,126.8000,415345
Beylikduzu,41.0011,28.6419,415290
Viet Tri,21.3000,105.4333,415280
Santa Rosa,14.3200,121.1200,414812
Nagqu,31.4760,92.0510,414554
Bettiah,26.8014,84.5028,414453
Jhang City,31.2694,72.3161,414131
Fujin,47.2500,132.0333,414090
Altindag,39.9636,32.9033,413994
Yuanping,38.7310,112.7110,413922
Tala,30.6798,30.9436,413839
Talkha,31.0592,31.3767,413584
Boa Vista,2.8200,-60.6719,413486
Banjul,13.4581,-16.5786,413397
Jayapura,-2.5330,140.7170,413283
Toyama,36.6959,137.2137,413028
Sanandaj,35.3114,46.9961,412767
Khon Kaen,16.4333,102.8333,412758
Linghai,41.1667,121.3500,412513
Shorapur,16.5200,76.7600,412291
Koumassi,5.2972,-3.9675,412282
Durham,35.9792,-78.9022,411362
Tinnevelly,8.7136,77.7567,411298
Pasto,1.2078,-77.2772,410835
Chattanooga,35.0660,-85.2481,410795
Bellary,15.1000,76.9167,410445
Bhagalpur,25.2500,87.0000,410210
Danjiangkou,32.5401,111.5131,409940
Kisumu,-0.1000,34.7500,409928
Zhangjiakou Shi Xuanhua Qu,40.5944,115.0243,409745
Maringa,-23.4250,-51.9389,409657
Manampizha,9.2972,76.6500,409271
Kocasinan,38.7333,35.4833,409005
Mataram,-8.5833,116.1167,408900
Magnitogorsk,53.3833,59.0333,408715
Greenville,34.8354,-82.3646,408626
Zhijiang,30.4260,111.7610,408487
Zaria,11.0667,7.7000,408198
Lancaster,40.0420,-76.3012,408023
Fenyang,37.2616,111.7699,407647
Syracuse,43.0407,-76.1437,407625
Binan,14.3300,121.0800,407437
Gebze,40.8000,29.4333,407019
Shashemene,7.2000,38.6000,407000
Fangting,31.1270,104.1670,406775
Shulan,44.4059,126.9655,406744
Wanyuan,31.9833,107.9667,406685
Jiexiu,37.0270,111.9170,406517
Hat Yai,7.0167,100.4667,406513
Baglar,37.9167,40.1833,406471
Sham Shui Po,22.3307,114.1622,405869
Santa Fe,-31.6333,-60.7000,405683
Delhi Cantonment,28.6000,77.1333,405633
Cumana,10.4564,-64.1675,405626
Fayetteville,36.0714,-94.1661,405556
Barura,23.3683,91.0484,405118
Kumi,36.1195,128.3444,404691
Nagasaki,32.7447,129.8736,404656
Al Hudaydah,14.8022,42.9511,404062
Pencheng,29.6760,115.6810,403655
Salt Lake City,22.6100,88.4000,403316
Qazvin,36.2886,50.0069,402748
Etawa,24.1800,78.2000,402678
Sonipat,28.9900,77.0220,402000
Jundiai,-23.1864,-46.8842,401896
Pensacola,30.4413,-87.1911,401535
Bogra,24.8510,89.3711,400983
Brno,49.1925,16.6083,400566
Oskemen,49.9833,82.6167,400142
Gifu,35.4232,136.7608,400118
Monteria,8.7500,-75.8833,400000
Maungdaw,20.8167,92.3667,400000
Igboho,8.8333,3.7500,400000
Yuregir,36.9928,35.3764,399910
Pingquan,41.0184,118.7020,399378
Toyonaka,34.7833,135.4667,399263
Dera Ghazi Khan,30.0331,70.6400,399064
Hatay,36.2025,36.1606,399045
Luhansk,48.5678,39.3031,397677
Miyazaki,31.9078,131.4203,397476
Dangyang,30.8210,111.7890,397465
Quilon,8.8932,76.6141,397419
Mulangodi,9.0000,76.6167,397419
Munro Turuttu,9.0000,76.6167,397419
Barinas,8.6333,-70.2000,397279
Gwangju,37.3667,127.2833,397269
Nangong,37.3590,115.4090,396718
Hirakata,34.8167,135.6500,396694
Sandakan,5.8430,118.1080,396290
Szczecin,53.4325,14.5481,396168
Surgut,61.2500,73.4333,395900
Yongji,34.8670,110.4480,394935
Arlington,32.6998,-97.1250,394769
Karur,10.9601,78.0766,394719
Betsiboka,-16.8667,46.9500,394561
Ijebu-Ode,6.8208,3.9208,394246
Al Jahra',29.3500,47.6833,393432
Tanga,-5.0742,39.0992,393429
Diadema,-23.6858,-46.6228,393237
Saurimo,-9.6500,20.4000,393000
Jalna,19.8410,75.8864,393000
Yola,9.2300,12.4600,392854
Zhugang,28.1358,121.2264,392800
Hejin,35.5960,110.7120,392561
Dunhua,43.3667,128.2333,392486
Tangail,24.2500,89.9200,392300
Khayelitsha,-34.0403,18.6778,391749
Ad Diwaniyah,31.9892,44.9247,391600
Nnewi,6.0167,6.9167,391227
San-Pedro,4.7704,-6.6400,390654
Gujrat,32.5739,74.0789,390533
Huili Chengguanzhen,26.6333,102.2500,390531
Yokosuka,35.0000,16.0000,390275
Aurora,39.7083,-104.7237,390201
Asyut,27.1869,31.1714,389307
Gwoza,11.0861,13.6914,388600
Sampaloc,14.6031,121.0022,388305
Saki,8.6667,3.4000,388225
Bologna,44.4939,11.3428,387971
Aqtobe,50.2836,57.2297,387807
Cilegon,-6.0027,106.0112,387543
Uvinza,-5.1069,30.3839,387442
Hafr al Batin,28.4337,45.9601,387096
Elazig,38.6744,39.2228,387072
Zanjan,36.6864,48.4953,386851
Bairia,25.7583,84.1489,386745
Oyo,7.8417,3.9306,386723
Taytay,14.5692,121.1325,386451
Kisenzi,-4.4094,15.3425,386151
Bhatpara,22.8700,88.4100,386019
Sintra,38.7974,-9.3904,385606
Manisa,38.6144,27.4292,385452
Sirur,18.8300,74.3800,385414
Tarlac City,15.4869,120.5900,385398
Okazaki,34.9543,137.1744,385376
Ceel Baraf,3.2072,45.7593,384630
Lingxi,27.5036,120.3975,384390
Ilesa,7.6167,4.7167,384334
Kakinada,16.9661,82.2550,384182
Savar,23.8482,90.2577,384093
Nuevo Laredo,27.4861,-99.5069,384033
Lecheng,25.1333,113.3333,383498
Bawshar,23.5777,58.3998,383257
Christchurch,-43.5311,172.6361,383200
Gusau,12.1500,6.6667,383162
Hancheng,35.4667,110.4333,383097
Zetang,29.2380,91.7710,382610
Serekunda,13.4450,-16.6750,382096
Kanifing,13.4475,-16.6725,382096
Canberra,-35.2931,149.1269,381488
Minamisuita,34.7594,135.5169,381238
Malabon,14.6600,120.9600,380522
Neiva,2.9345,-75.2809,380019
Ha Tinh,18.3333,105.9000,380000
Huancayo,-12.0667,-75.2167,378203
Celaya,20.5222,-100.8122,378143
Ichinomiya,35.3039,136.8031,378108
Iquitos,-3.7500,-73.2500,377609
Panihati,22.6900,88.3700,377347
Lianzhou,24.7810,112.3770,377220
Cainta,14.5700,121.1200,376933
Helixi,30.6267,118.9861,376857
Madinat as Sadis min Uktubar,29.9361,30.9269,376302
Mamou,10.3833,-12.0833,376269
Scranton,41.4044,-75.6649,375462
Itaquaquecetuba,-23.4864,-46.3486,375011
Cantonment,31.5167,74.3833,374872
Rohtak,28.8909,76.5796,374292
Maler Kotla,30.5167,75.8833,374000
Bhawana,31.5661,72.6461,373841
Oxnard,34.1964,-119.1815,373423
Bryansk,53.2425,34.3667,373310
Lipa City,13.9411,121.1622,372931
Butuan,8.9480,125.5430,372910
Dikirnis,31.0890,31.5948,372871
Takasaki,36.3219,139.0033,372639
Ambon,-3.6967,128.1783,372249
Indio,33.7346,-116.2346,371926
Malakwal,32.5531,73.2067,371869
Toyohashi,34.7692,137.3915,371507
Chitungwiza,-17.9939,31.0481,371244
Panshi,42.9500,126.0667,370238
Az Zubayr,30.3892,47.7081,370000
Bharatpur,27.6833,84.4333,369377
Petare,10.4833,-66.8167,369000
Mardan,34.2012,72.0258,368302
Nagano,36.6486,138.1947,367184
Bauru,-22.3147,-49.0606,366992
La Florida,-33.5333,-70.5833,366916
Nicolas Romero,19.5833,-99.3667,366602
Jinshan,25.1475,101.9764,366512
Bochum,51.4819,7.2158,366385
Baguio City,16.4119,120.5933,366358
Cibinong,-6.4850,106.8420,365387
Sivas,39.7500,37.0167,365274
Kolga,22.3500,82.6800,365253
Korba,22.3458,82.6963,365253
Qardho,9.5004,49.1660,365000
Rio Branco,-9.9781,-67.8117,364756
Tecamac,19.7131,-98.9683,364579
Alanya,36.5500,32.0000,364180
Mandaue City,10.3300,123.9300,364116
Victorville,34.5277,-117.3536,363596
Kocaeli,40.7625,29.9175,363416
Warri,5.5167,5.7500,363382
Victoria,48.4283,-123.3647,363222
Wonsan,39.1475,127.4461,363127
Iligan,8.2300,124.2500,363115
Anguo,38.4180,115.3270,363091
Coventry,52.4081,-1.5106,362690
Trenton,40.2237,-74.7641,362501
Keelung,25.1333,121.7333,362487
Geita,-2.8714,32.2294,361671
Ivanovo,56.9967,40.9819,361644
Cuenca,-2.8974,-79.0045,361524
Caerdydd,51.4817,-3.1792,361469
Blumenau,-26.9189,-49.0658,361261
Nanqiao,30.9167,121.4547,361185
Hrodna,53.6667,23.8333,361115
Florence,43.7714,11.2542,360930
Buurhakaba,2.7837,44.0833,360795
Bengkulu,-3.7956,102.2592,360495
Caxias do Sul,-29.1678,-51.1789,360419
Malmo,55.5833,13.0333,360249
Shuanghe,30.3746,106.7903,360000
Petion-Ville,18.5098,-72.2856,359615
Dengtacun,41.4333,123.3333,359401
Huntsville,34.6981,-86.6412,359389
Utrecht,52.0908,5.1217,359370
Palu,-0.8950,119.8594,359350
Sikar,27.6200,75.1500,359293
Umuahia,5.5333,7.4833,359230
Wuppertal,51.2667,7.1833,358938
Palmira,3.5833,-76.2500,358895
Alicante,38.3453,-0.4831,358720
Sao Jose do Rio Preto,-20.8200,-49.3789,358523
Ash Shuhada',30.5968,30.8993,358486
Ondo,7.0833,4.8333,358430
Vitsyebsk,55.1917,30.2056,358395
Sasaram,24.9500,84.0300,358283
Sultanbeyli,40.9683,29.2617,358201
Xunyang,32.8341,109.3653,357876
Taraz,42.9000,71.3667,357795
Cubal,-13.0333,14.2500,357618
Anda,46.4240,125.3520,357535
Luena,-11.7918,19.9062,357413
Karnal,29.6860,76.9890,357334
Gonaives,19.4456,-72.6883,356324
Vinnytsia,49.2333,28.4833,356303
Minatitlan,17.9833,-94.5500,356020
Linxia Chengguanzhen,35.6047,103.2422,355968
Brahmapur,19.3150,84.7941,355823
Modesto,37.6375,-121.0028,355686
Caucaia,-3.7328,-38.6558,355679
Cabuyao,14.2750,121.1250,355330
Gedaref,14.0333,35.3833,354927
San Fernando,15.0300,120.6800,354666
Kawagoe,35.9251,139.4858,354598
Pokhara,28.2097,83.9853,353841
Nice,43.7034,7.2663,353701
Villahermosa,17.9892,-92.9281,353577
Wakayama,34.2333,135.1667,353299
Mahilyow,53.9167,30.3500,353110
Osh,40.5333,72.7833,353080
Kita-ku,35.7500,139.7333,353058
Gimpo,37.7000,126.6000,352683
Corrientes,-27.4833,-58.8167,352646
Thari Mir Wah,27.0683,68.6023,352491
Nara,34.6844,135.8050,352377
Vladimir,56.1286,40.4058,352347
Sinuiju,40.1000,124.4000,352000
Oruro,-17.9667,-67.1167,351802
Arkhangelsk,64.5431,40.5375,351488
Batangas,13.8300,121.0000,351437
Ahmadnagar,19.0800,74.7300,350859
Varna,43.2114,27.9111,350745
Tarsus,36.9165,34.8951,350732
Sariyer,41.1669,29.0572,350454
Semey,50.4333,80.2667,350201
Holguin,20.8872,-76.2631,350191
Tungi,23.8915,90.4023,350000
Gode,5.9527,43.5516,350000
Sawran,36.6532,44.5441,350000
An Nhon,13.9170,109.0830,350000
Olinda,-8.0089,-34.8550,349976
Praia Grande,-24.0058,-46.4028,349935
Shinjuku,35.7014,139.7097,349385
Antofagasta,-23.6500,-70.4000,348517
Meram,37.8364,32.4383,348325
Cascavel,-24.9558,-53.4553,348051
Pamukkale,37.9167,29.1167,347926
Canoas,-29.9200,-51.1800,347657
Takatsuki,34.8461,135.6175,347496
Yidu,30.3780,111.4500,347388
Antonio Enes,-16.2308,39.9105,347175
Plovdiv,42.1434,24.7510,346893
Central Coast,-33.3000,151.2000,346596
Honolulu,21.3294,-157.8460,346323
Karsiyaka,38.4594,27.1153,346264
Shahjanpur,27.8800,79.9100,346103
Gwagwalada,8.9392,7.0758,346000
Avadi,13.1147,80.1098,345996
Tanch'on,40.4580,128.9110,345875
Greensboro,36.0956,-79.8271,345858
Khanapur,15.6394,74.5083,345839
Wad Medani,14.4000,33.5100,345290
Fort Wayne,41.0888,-85.1436,345279
Kusti,13.1700,32.6600,345068
Belfast,54.5967,-5.9300,345006
Cuddapah,14.4700,78.8200,344893
Nakano,35.7074,139.6638,344880
Yong'an,25.9420,117.3650,344793
Alamadi,13.1097,80.0972,344701
Carapicuiba,-23.5228,-46.8358,344596
Anaheim,33.8390,-117.8574,344553
Brest,52.1347,23.6569,344470
Otsu,35.0167,135.8500,343991
Maseru,-29.3100,27.4800,343541
Pavlodar,52.3000,76.9500,343091
Chon Buri,13.3611,100.9850,342959
Naga City,13.6244,123.1864,342769
Vahdat,38.5531,69.0206,342700
Florianopolis,-27.5933,-48.5530,342315
Paulista,-7.9408,-34.8728,342167
Sfax,34.7400,10.7600,341999
Rajahmundry,16.9800,81.7800,341831
Koshigaya,35.8911,139.7909,341784
Hongjiang,27.1910,109.8190,341706
Yesilyurt,38.2961,38.2489,341654
Vung Tau,10.3833,107.1167,341552
Jeonju,35.8167,127.1500,341545
Alwar,27.5498,76.6355,341422
Huadian,42.9720,126.7460,341308
Tokorozawa,35.7996,139.4686,341289
Sumqayit,40.5961,49.6700,341200
Vitoria da Conquista,-14.8661,-40.8394,341128
Yamoussoukro,6.8161,-5.2742,340234
Buon Ma Thuot,12.6667,108.0500,340000
Corpus Christi,27.7254,-97.3767,339432
Fort Collins,40.5477,-105.0656,339256
Mishan,45.5298,131.8466,339103
Makiivka,48.0556,37.9611,338968
Islip,40.7385,-73.1888,338784
Cuernavaca,18.9186,-99.2342,338650
Markham,43.8767,-79.2633,338503
Bielefeld,52.0211,8.5347,338410
Bydgoszcz,53.1219,18.0003,337666
Chinju,35.2000,128.0833,337230
Reading,51.4542,-0.9731,337108
Randburg,-26.0936,28.0064,337053
Iwaki,37.0505,140.8877,336111
Oshawa,43.9000,-78.8500,335949
Bonn,50.7353,7.1022,335789
Sambalpur,21.4700,83.9700,335761
Santo Domingo de los Colorados,-0.2542,-79.1719,334826
Uruapan,19.4208,-102.0628,334749
Lublin,51.2500,22.5667,334681
Porto Velho,-8.7619,-63.9039,334661
Licheng,24.5000,110.4000,334527
Huichang,34.9073,112.7914,334213
Tampere,61.4981,23.7600,334112
Antioch,37.9787,-121.7960,333347
Muzaffarpur,26.1225,85.3906,333200
Chita,52.0500,113.4667,333159
Vina del Mar,-33.0244,-71.5517,332875
Khipro,25.8230,69.3770,332833
Asan,36.7836,127.0042,332790
Nukus,42.4667,59.6000,332500
Chak Jhumra,31.5667,73.1833,332461
Simferopol,44.9519,34.1022,332317
Konak,38.4189,27.1285,332277
Soledad de Graciano Sanchez,22.1833,-100.9333,332072
Salalah,17.0197,54.0897,331949
Santarem,-2.4431,-54.7083,331937
Yanbu`,24.0523,38.1503,331916
Maebashi,36.3895,139.0634,331849
Kaluga,54.5500,36.2833,331842
Ganca,40.6828,46.3606,331400
Asahikawa,43.7667,142.3667,331392
Jackson,32.3157,-90.2125,331332
Kendari,-3.9907,122.5086,331013
Wonju,37.3417,127.9208,330854
Birkat as Sab`,30.6291,31.0824,330847
Lafia,8.4917,8.5167,330712
Dahuk,36.8500,42.9833,330600
Nizhniy Tagil,57.9167,59.9667,330507
Finglas,53.3892,-6.2969,330506
Kamarhati,22.6686,88.3704,330211
Nicosia,35.1725,33.3650,330000
Lengshuijiang,27.6860,111.4360,329912
Ribeirao das Neves,-19.7669,-44.0869,329794
Guediawaye,14.7724,-17.3884,329659
Ciudad Obregon,27.4939,-109.9389,329404
Campiernagar,27.0290,83.2668,329104
Phatthaya,12.9357,100.8890,328961
Minzhu,43.7238,127.3448,328925
Belgorod,50.6000,36.6000,328482
Gomez Palacio,25.5611,-103.4983,327985
Bijapur,16.8300,75.7100,327427
Cabanatuan City,15.4908,120.9678,327325
Si Racha,13.1740,100.9300,327172
Salamanca,20.5703,-101.1972,327169
Ratnagiri,16.9944,73.3000,327120
Ulanhot,46.0722,122.0933,327081
Chipata,-13.6453,32.6464,327059
Koriyama,37.4004,140.3597,327040
Yunzhong,39.8279,113.1000,326849
Fayetteville,35.0850,-78.9772,326821
Arnavutkoy,41.1856,28.7406,326452
Kucukcekmece,41.0000,28.8000,326452
Roodepoort,-26.1625,27.8725,326416
Pucallpa,-8.3833,-74.5500,326040
San Pedro,14.3583,121.0583,326001
Myrtle Beach,33.7094,-78.8844,325829
Kochi,33.5589,133.5314,325535
Jagdalpur,19.1800,81.9200,325463
Rampur,28.8000,79.0000,325248
Kuching,1.5300,110.3300,325132
Cotabato,7.2200,124.2500,325079
Nantes,47.2181,-1.5528,325070
Henderson,36.0133,-115.0381,324523
Cariacica,-20.2639,-40.4200,324285
Mobile,30.6782,-88.1162,324067
Nazret,8.5414,39.2689,324000
Safi,32.2833,-9.2333,323888
Kikuyu,-1.2463,36.6629,323881
Cordoba,37.8900,-4.7800,323763
Kluang,2.0383,103.3179,323762
Mekele,13.4969,39.4769,323700
Pelotas,-31.7719,-52.3428,323158
Vaughan,43.8333,-79.5000,323103
Kaiyuan,23.7111,103.2461,323031
Tangdong,25.9730,113.2310,322990
Munster,51.9625,7.6256,322904
Vitoria,-20.3106,-40.2972,322869
Shimoga,13.9333,75.5667,322650
Uige,-7.6167,15.0500,322531
Hotan,37.1167,79.9167,322300
Minna,9.6139,6.5569,322163
Ning'an,44.3410,129.4830,322127
Camaguey,21.3786,-77.9186,321992
Taourirt,34.4169,-2.8850,321876
San Salvador de Jujuy,-24.1833,-65.3000,321789
Kashipur,29.2200,78.9500,321623
Thu Dau Mot,10.9667,106.6500,321607
Serra,-20.1289,-40.3078,321181
Lexington,38.0423,-84.4587,321122
La Paz,-16.4958,-68.1333,321073
Sukabumi,-6.9181,106.9315,320970
Menongue,-14.6556,17.6842,320914
Okene,7.5619,6.2411,320260
Junagadh,21.5222,70.4579,320250
Guasavito,25.5744,-108.4706,320000
Kaech'on,39.6986,125.9061,319554
Tehuacan,18.4617,-97.3928,319375
Coatzacoalcos,18.1414,-94.4344,319187
Saint-Denis,-20.8789,55.4481,319141
Muhanga,-2.0845,29.7527,319141
Zalantun,48.0270,122.7080,318933
Hafizabad,32.0714,73.6878,318621
Katsina,12.2500,7.5000,318459
Puerto Plata,19.8000,-70.6833,318419
Gwangmyeongni,37.4760,126.8660,318021
Lansing,42.7142,-84.5601,318001
Taubate,-23.0333,-45.5500,317915
Zhengjiatun,43.5183,123.5027,317758
Port Moresby,-9.4789,147.1494,317374
Fontibon,4.6786,-74.1411,317179
Hapur,28.7309,77.7757,317004
Mannheim,49.4878,8.4661,316877
Barueri,-23.5111,-46.8764,316473
Savannah,32.0286,-81.1821,316446
Naha,26.2122,127.6792,316048
Bari,41.1253,16.8667,316015
Pattikad,10.5276,76.2144,315957
Xiaoli,22.6721,113.2509,315820
Youngstown,41.0993,-80.6463,315751
Trichur,10.5276,76.2144,315596
Yingzhong,32.2370,119.8150,315462
Bor,6.2072,31.5591,315351
Volzhskiy,48.8056,44.7417,315220
San Miguelito,9.0503,-79.4707,315019
N'Zerekore,7.7522,-8.8217,315000
Balikesir,39.6333,27.8833,314958
Espoo,60.2056,24.6556,314821
Muar,2.0337,102.5666,314776
Ann Arbor,42.2759,-83.7310,314647
Kasur,31.1167,74.4500,314617
Usme,4.4464,-74.1522,314431
Barddhaman,23.2333,87.8667,314265
Sousse,35.8333,10.6333,314071
Kingston upon Hull,53.7444,-0.3325,314018
Binangonan,14.4514,121.1919,313631
Attiecoube,5.3453,-4.0350,313135
Podolsk,55.4311,37.5456,312911
Smolensk,54.7828,32.0453,312896
Jiayuguan,39.7732,98.2882,312663
Pasir Gudang,1.4620,103.9053,312499
Vologda,59.2167,39.9000,312420
Gorgan,36.8369,54.4372,312223
Tanza,14.3944,120.8531,312116
Yakutsk,62.0300,129.7300,311760
Santa Ana,33.7367,-117.8819,311639
Catania,37.5027,15.0873,311584
Panvel,18.9944,73.1139,311434
Guaruja,-23.9936,-46.2564,311230
Nizamabad,18.6720,78.0940,311152
Quy Nhon,13.7667,109.2333,311000
Kurgan,55.4667,65.3500,310911
Saransk,54.1833,45.1833,310898
Ha'il,27.5167,41.6833,310897
Datang,22.9406,113.9436,310889
Longquan,25.9106,114.7860,310700
Mitchells Plain,-34.0506,18.6181,310485
Yokkaichi,34.9650,136.6244,310263
Chalco,19.2647,-98.8975,310130
Karlsruhe,49.0092,8.4040,309964
Shahriar,35.6531,51.0600,309607
Shahr-e Qods,35.7103,51.1131,309605
Ciudad del Este,-25.5167,-54.6161,308983
Tabora,-5.0167,32.8000,308741
Ciudad Benito Juarez,25.6500,-100.0833,308285
Beian,48.2500,126.5167,308237
Irvine,33.6772,-117.7738,308160
Hisor,38.5264,68.5381,308100
Nakuru,-0.2833,36.0667,307990
Karawang,-6.3125,107.2950,307880
Sariwon,38.5064,125.7597,307764
St. Paul,44.9478,-93.1039,307762
Poughkeepsie,41.6950,-73.9211,307738
Battalgazi,38.4228,38.3656,307478
Nghi Son,19.4170,105.7500,307304
Guangming,45.3333,122.7833,307215
Newark,40.7245,-74.1725,307188
Parbhani,19.2700,76.7800,307170
Montpellier,43.6119,3.8772,307101
Puerto Princesa,9.7500,118.7500,307079
Hisar,29.1500,75.7000,307024
Montes Claros,-16.7322,-43.8636,306947
Betim,-19.9678,-44.1978,306675
Windsor,42.2833,-83.0000,306519
Kasugai,35.2475,136.9722,306449
Ciudad Santa Catarina,25.6833,-100.4500,306322
Fatehpur,27.9800,74.9500,305638
Birania,27.9800,74.9500,305638
Ciudad Victoria,23.7389,-99.1431,305155
Kaunas,54.9000,23.9333,305120
Playa del Carmen,20.6281,-87.0755,304942
Yonghetun,39.9131,116.6458,304781
Kashan,33.9825,51.4325,304487
La Pena,19.3606,-98.9417,304088
Sumbawanga,-7.9667,31.6167,303986
Vila Nova de Gaia,41.1333,-8.6167,303824
Orel,52.9686,36.0694,303696
Vladikavkaz,43.0400,44.6775,303597
Sao Vicente,-23.9664,-46.3861,303551
Karaikkudi,10.0735,78.7732,303291
Augsburg,48.3689,10.8978,303150
Panjakent,39.5000,67.6167,303000
Akita,39.7200,140.1026,302984
Lachhmangarh Sikar,27.8225,75.0253,302956
Kurume,33.3192,130.5083,302858
Az Zaqaziq,30.5667,31.5000,302840
Palmas,-10.1886,-48.3336,302692
Bahia Blanca,-38.7167,-62.2667,301572
Al Waqf,26.0866,32.4226,301486
San Bernardo,-33.5833,-70.7000,301313
San Juan del Rio,20.3833,-99.9833,301237
Armenia,4.5300,-75.6800,301226
Qianzhou,28.2760,109.7120,301000
Popayan,2.4542,-76.6092,300837
Valladolid,41.6528,-4.7236,300618
Al Qunfudhah,19.1264,41.0789,300516
Corlu,41.1500,27.8000,300296
Binxian,35.0542,108.0814,300226
Yakou,33.2950,113.5269,300200
Newcastle,54.9780,-1.6102,300196
Oulgaret,11.9265,79.7789,300104
Awasa,7.0500,38.4667,300100
Ingraj Bazar,25.0119,88.1433,300088
Varzea Grande,-15.6469,-56.1328,300078
Oaxaca,17.0606,-96.7253,300050
Sucre,-19.0475,-65.2600,300000
Barrancabermeja,7.0667,-73.8500,300000
Al `Ajami,31.1227,29.7838,300000
Al Matariyah,31.1833,32.0333,300000
Bada Barabil,22.1200,85.4000,300000
Ash Shamiyah,31.9625,44.6008,300000
Khairpur Tamewah,29.5800,72.2328,300000
Jinja,0.4233,33.2039,300000
Santa Rosa,38.4458,-122.7067,299986
Ar Raqqah,35.9304,39.0200,299824
Chakwal,32.9303,72.8556,299751
Oakashicho,34.6500,135.0000,299699
Oyster Bay,40.7846,-73.5140,299519
Farg`ona,40.3864,71.7864,299200
Tursunzoda,38.5108,68.2303,298800
Cherepovets,59.1167,37.9000,298790
Resistencia,-27.4514,-58.9867,298611
Jember,-8.1727,113.6873,298585
Al Mubarraz,25.4416,49.6642,298562
Pekalongan,-6.8833,109.6667,298386
Los Mochis,25.7835,-108.9937,298009
Toshima,35.7333,139.7167,297954
Pachuca,20.1000,-98.7500,297848
Yangsan,35.3333,129.0333,297532
Concord,35.3933,-80.6369,297379
Tampico,22.2553,-97.8686,297284
Bihar,25.1970,85.5180,297268
Temara,33.9267,-6.9122,297098
Malabo,3.7456,8.7744,297000
Winter Haven,28.0118,-81.7014,296830
Valparaiso,-33.0461,-71.6197,296655
Cirebon,-6.7071,108.5574,296389
Tagum,7.4478,125.8078,296202
Cekme,41.0369,29.1786,296066
Darbhanga,26.1700,85.9000,296039
Comilla,23.4500,91.2000,296010
Idar,23.8390,73.0020,295971
Pondokaren,-6.2811,106.7019,295812
Sorong,-0.8667,131.2500,295809
Shubrakhit,31.0279,30.7149,295777
Floridablanca,7.2167,-73.0667,295724
Silang,14.2306,120.9750,295644
Al Kharj,24.1483,47.3050,295462
Rufisque,14.7140,-17.2723,295459
Eloy Alfaro,-2.1733,-79.8311,295211
Asheville,35.5707,-82.5537,295040
Sikandarabad,28.4512,77.6955,294858
Stockport,53.4083,-2.1494,294773
Kafr Saqr,30.7934,31.6257,294765
Divo,5.8372,-5.3572,294559
Vila Teixeira da Silva,-12.1958,15.8556,294494
Inegol,40.0806,29.5097,294485
Paarl,-33.7242,18.9558,294457
Rangpur,25.7500,89.2444,294265
Bialystok,53.1353,23.1456,294242
Vigo,42.2314,-8.7124,293977
Trabzon,41.0050,39.7225,293661
Canton,40.8078,-81.3676,293657
Coacalco,19.6333,-99.0931,293444
Aizawl,23.7272,92.7178,293416
Bali,22.6500,88.3400,293373
Bradford,53.8000,-1.7500,293277
Mabalacat,15.2200,120.5800,293244
Dexing,28.9306,117.5947,293201
Lincoln,40.8099,-96.6784,293055
Hailin,44.5940,129.3800,292755
Graz,47.0708,15.4386,292630
Strasbourg,48.5833,7.7458,291709
Flint,43.0236,-83.6921,291688
Groznyy,43.3125,45.6986,291687
Mahikeng,-25.8656,25.6436,291527
Chimbote,-9.0745,-78.5936,291408
Bergen,60.3925,5.3233,291189
Gatineau,45.4833,-75.6500,291041
Surajgarha,25.2500,86.2300,290998
Lakeland,28.0557,-81.9545,290762
Batna,35.5500,6.1667,290645
San Miguel,13.4814,-88.1775,290612
Aarhus,56.1572,10.2107,290598
Morioka,39.7021,141.1545,290553
Hong'an,47.2100,123.6100,289999
Nagercoil,8.1750,77.4306,289916
Santa Maria,14.8200,120.9600,289820
Tambov,52.7231,41.4539,289701
Jersey City,40.7184,-74.0686,289691
Dewas,22.9600,76.0600,289550
Eldoret,0.5167,35.2833,289380
Nottingham,52.9561,-1.1512,289301
Magway,20.1500,94.9500,289247
Anchorage,61.1508,-149.1091,289069
Springfield,37.1943,-93.2916,289041
Neuquen,-38.9525,-68.0642,288896
Tuzla,40.8161,29.3006,288878
Kabwe,-14.4333,28.4500,288598
Cabimas,10.4000,-71.4500,288595
Setif,36.1900,5.4100,288461
Sonpur,25.7000,85.1800,288102
Hugli,22.9000,88.3900,288090
Chunchura,22.9000,88.3900,288090
Meguro,35.6333,139.6833,288088
Anapolis,-16.3269,-48.9528,288085
Machala,-3.2667,-79.9667,288072
San Lorenzo,-25.3400,-57.5200,287977
Franca,-20.5389,-47.4008,287737
Bac Ninh,21.1833,106.0500,287658
Ichalkaranji,16.7000,74.4700,287570
Tirupati,13.6500,79.4200,287482
Plano,33.0502,-96.7486,287339
Pathein,16.7842,94.7333,287071
Sincelejo,9.2950,-75.3961,286716
Cluj-Napoca,46.7667,23.5833,286598
Songea,-10.6833,35.6500,286285
Tacna,-18.0147,-70.2489,286240
Tin Shui Wai,22.4600,114.0020,286232
Juazeiro do Norte,-7.2128,-39.3150,286120
Al Qurnah,31.0155,47.4336,286073
Bhatinda,30.2300,74.9519,285813
Katowice,50.2625,19.0217,285711
Wiesbaden,50.0825,8.2400,285522
Masaka,-0.3411,31.7361,285509
Foz do Iguacu,-25.5400,-54.5875,285415
Bolton,53.5783,-2.4300,285372
San Pablo,14.0700,121.3250,285348
Huixquilucan,19.3611,-99.3508,284965
Qillin,31.0475,30.8549,284853
Croix-des-Bouquets,18.5761,-72.2269,284812
San Juan Sacatepequez,14.7189,-90.6442,284798
Ostrava,49.8356,18.2925,284765
Soyapango,13.7333,-89.1500,284659
Ljubljana,46.0514,14.5061,284293
Fukushima,37.7608,140.4747,284282
Bago,17.3333,96.4833,284179
Delmas,18.5500,-72.3000,284079
Fuquan,26.6863,107.5204,283904
Ibaraki,34.8164,135.5686,283835
Nizhnevartovsk,60.9500,76.6000,283256
Lubbock,33.5657,-101.8879,283024
Satna,24.6005,80.8322,283004
San Cristobal,7.7667,-72.2333,282830
Chernihiv,51.4939,31.2947,282747
Gungoren,41.0225,28.8717,282692
Temuco,-38.7333,-72.6667,282415
Ica,-14.0667,-75.7333,282407
Davenport,41.5565,-90.6053,282356
Phitsanulok,16.8158,100.2636,281929
Khanewal,30.3000,71.9333,281890
Jining,41.0300,113.0800,281716
Chuncheon,37.8667,127.7333,281596
Sakarya,40.7833,30.4000,281489
Kaura Namoda,12.6000,6.5897,281367
Malard,35.6806,50.9783,281027
Bukhara,39.7667,64.4231,280187
Reading,40.3400,-75.9267,280030
Marot,28.5100,71.5000,280000
Sumbe,-11.2053,13.8417,279968
Mingaora,34.7717,72.3600,279914
Caala,-12.8500,15.5500,279792
Poltava,49.5894,34.5514,279593
Petrozavodsk,61.7833,34.3333,279190
Kherson,46.6425,32.6250,279131
Lucena,13.9300,121.6200,278924
Petropolis,-22.5050,-43.1789,278881
Mamuju,-2.6833,118.9000,278764
Mau,25.9417,83.5611,278745
Long Xuyen,10.3736,105.4458,278658
Gyeongsan,35.8167,128.7333,278500
Barasat,22.7200,88.4800,278435
Qarshi,38.8667,65.8000,278300
Shreveport,32.4653,-93.7955,278269
Chandler,33.2825,-111.8514,278123
Pematangsiantar,2.9600,99.0600,278055
Sunderland,54.9060,-1.3810,277417
Sterlitamak,53.6333,55.9500,277410
Santa Ana,13.9950,-89.5561,277264
Buyukcekmece,41.0200,28.5775,277181
Gagnoa,6.1333,-5.9333,277044
Xingsha,28.2573,113.1234,277034
Dire Dawa,9.6000,41.8667,277000
Lashkar Gah,31.5831,64.3692,276831
Itagui,6.1667,-75.6167,276744
Juliaca,-15.4833,-70.1333,276110
Posadas,-27.3667,-55.9000,275988
Tegal,-6.8675,109.1375,275789
Farrukhabad,27.3900,79.5810,275754
South Bend,41.6767,-86.2696,275725
Mytishchi,55.9167,37.7667,275313
Kunsan,35.9833,126.7167,275155
Wilmington,34.2099,-77.8866,275128
Chula Vista,32.6281,-117.0144,275030
Yoshkar-Ola,56.6500,47.8833,274715
Saugor,23.8300,78.7100,274556
Khmelnytskyi,49.4167,27.0000,274452
Khorabar,26.7410,83.8880,274403
Nassau,25.0442,-77.3503,274400
Rockford,42.2596,-89.0640,274256
Isfara,40.1167,70.6333,274000
Ratlam,23.3340,75.0370,273892
Mehrabpur,27.0994,68.4208,273764
Yeosu,34.7607,127.6622,273761
Shaowu,27.3403,117.4925,273721
Ponta Grossa,-25.0950,-50.1619,273616
Taboao da Serra,-23.6019,-46.7528,273542
Istaravshan,39.9108,69.0064,273500
San Mateo,14.6969,121.1219,273306
Tsu,34.7331,136.5133,273267
Imperatriz,-5.5258,-47.4758,273110
Huozhou,36.5690,111.7551,272987
Los Alcarrizos,18.5167,-70.0167,272776
Soubre,5.7836,-6.5939,272773
Eugene,44.0564,-123.1174,272737
Maragheh,37.3894,46.2378,272400
Majene,-3.5403,118.9707,272377
Huilong,30.3866,106.7756,272332
Salem,44.9233,-123.0244,272331
Sumida,35.7000,139.8167,272085
Gabela,-10.8500,14.3667,271843
Dayr az Zawr,35.3304,40.1300,271800
Iasi,47.1622,27.5889,271692
Sarta,36.4486,53.3233,271467
Gilbert,33.3100,-111.7463,271118
Da'an,45.5000,124.2833,270911
North Las Vegas,36.2883,-115.0888,270773
Iksan,35.9439,126.9544,270758
My Tho,10.3500,106.3500,270700
Nguru,12.8792,10.4525,270632
Mito,36.3658,140.4712,270445
Kunp'o,37.3500,126.9500,270443
Bijiao,22.9253,113.2067,270310
Cherkasy,49.4444,32.0597,269836
Bayat,40.5455,34.9570,269595
Corum,40.5455,34.9570,269595
Handwara,34.3997,74.2817,269311
Binjai,3.5986,98.4803,269053
Monchengladbach,51.2000,6.4333,268943
Kunduz,36.7286,68.8681,268893
Parana,-31.7331,-60.5297,268889
Yeosu,34.7333,127.7333,268823
Drug,21.1900,81.2800,268806
Turbat,26.0042,63.0606,268625
Gijon,43.5333,-5.7000,268561
Brahmanbaria,23.9723,91.1099,268279
Thai Binh,20.4461,106.3422,268167
Ichihara,35.4981,140.1154,268038
Tarija,-21.5333,-64.7333,268000
Shibin al Kawm,30.5500,31.0000,267945
Siverek,37.7500,39.3167,267942
Plymouth,50.3714,-4.1422,267918
Aswan,24.0889,32.8997,267913
Potosi,-19.5892,-65.7533,267907
Hulin,45.7667,132.9333,267870
Kostroma,57.7681,40.9269,267481
Murmansk,68.9706,33.0750,267422
Maradi,13.5010,7.1036,267249
Xiangkhoang,19.4167,103.5000,267172
Anantapur,14.6800,77.5990,267161
Kiziltepe,37.1939,40.5861,267151
Adiyaman,37.7639,38.2778,267131
East London,-33.0175,27.9047,267007
Saskatoon,52.1333,-106.6833,266141
Sumare,-22.8219,-47.2669,265955
Gelsenkirchen,51.5167,7.1000,265885
Nagaoka,37.4462,138.8512,265868
Khwazakhela,34.9333,72.4667,265571
Santa Clarita,34.4175,-118.4964,265529
Suncheon,34.9506,127.4875,265390
Kibaha,-6.7667,38.9167,265360
Nalchik,43.4833,43.6167,265162
Gent,51.0536,3.7253,265086
Karakopru,37.1847,38.7908,265035
Antsirabe,-19.8667,47.0333,265018
Feni,23.0150,91.3967,265000
Imphal,24.8074,93.9384,264986
Taunggyi,20.7836,97.0354,264804
Nogales,31.3000,-110.9333,264782
Ed Daein,11.4672,26.1317,264734
Dezful,32.3786,48.4144,264709
Mossoro,-5.1878,-37.3439,264577
Milton Keynes,52.0400,-0.7600,264349
Chernivtsi,48.3000,25.9333,264298
Dumai,1.6667,101.4500,264084
Itajai,-26.9078,-48.6619,264054
Kutahya,39.4167,29.9833,263863
Constanta,44.1667,28.6333,263707
Luque,-25.2672,-57.4853,263604
Yao,34.6269,135.6010,263436
Jalalabad,34.4342,70.4478,263312
Chiayi,23.4800,120.4497,263188
Nawabshah,26.2442,68.4100,263102
Talisay,10.2500,123.8300,263048
Tchibota,-4.1794,11.3731,262931
Matala,-14.7306,15.0367,262763
Peoria,40.7520,-89.6154,262461
Quilmes,-34.7167,-58.2667,262379
Novorossiysk,44.7167,37.7833,261937
Wollongong,-34.4331,150.8831,261896
Zhytomyr,50.2500,28.6667,261624
Fukui,36.0641,136.2196,261474
Arrah,25.5514,84.6603,261430
Tallahassee,30.4551,-84.2527,261271
Malolos,14.8436,120.8114,261189
Heroica Nogales,31.3186,-110.9458,261137
Killeen,31.0753,-97.7297,261099
Bariadi,-2.7919,33.9894,260927
Hong,10.2317,12.9303,260900
Santa Teresa del Tuy,10.2333,-66.6639,260899
St. Petersburg,27.7931,-82.6652,260646
Fuchu,35.6689,139.4776,260508
Minato,35.6581,139.7514,260486
Novi Sad,45.2542,19.8425,260438
Boksburg,-26.2125,28.2625,260321
Olongapo,14.8300,120.2800,260317
Quang Ngai,15.1167,108.8000,260252
Engels,51.5017,46.1222,260190
Kennewick,46.1978,-119.1732,260091
Sivakasi,9.4533,77.8024,260047
Al Hamzah,31.7244,44.9769,260000
Skardu,35.2903,75.6444,260000
Qo`qon,40.5286,70.9425,259700
Kotri,25.3740,68.3013,259358
Misratah,32.3775,15.0920,259056
Aydin,37.8481,27.8453,259027
Singa,13.1483,33.9311,259000
Taluqan,36.7167,69.5167,258758
Manta,-0.9500,-80.7162,258697
Ndulo,-11.4833,15.8333,258161
Andulo,-11.4926,16.7035,258161
Vitoria-Gasteiz,42.8500,-2.6833,257968
Hiratsuka,35.3167,139.3500,257662
Columbus,32.5100,-84.8771,257578
Raniyah,36.2550,44.8822,257577
Annaba,36.9000,7.7667,257359
Etawah,26.7700,79.0300,256838
Siddhirganj,23.6913,90.5149,256760
Khimki,55.8892,37.4450,256684
Chingola,-12.5333,27.8500,256560
Sumy,50.9119,34.8028,256474
Yakeshi,49.2860,120.7120,256396
Indaiatuba,-23.0903,-47.2181,256223
Bloemfontein,-29.1167,26.2167,256185
Laredo,27.5625,-99.4874,255949
Malkajgiri,17.4519,78.5362,255899
Germiston,-26.2178,28.1672,255863
Verona,45.4386,10.9928,255588
Kakogawacho-honmachi,34.7500,134.8333,255523
Derby,52.9247,-1.4780,255394
Pasarkemis,-6.1703,106.5300,255345
Westminster,51.4947,-0.1353,255324
Kuala Terengganu,5.3304,103.1200,255109
Irving,32.8583,-96.9702,255036
San Pedro Carcha,15.4667,-90.3000,255006
Mocamedes,-15.1953,12.1508,255000
Tokushima,34.0667,134.5500,254510
Sao Carlos,-22.0178,-47.8908,254484
Longueuil,45.5333,-73.5167,254483
Marilao,14.7581,120.9481,254453
Tuni,17.3500,82.5500,254425
Sodo,6.8550,37.7808,254295
Ash Shatrah,31.4175,46.1772,254000
Sab` al Bur,33.4617,44.1557,254000
Fort-de-France,14.6000,-61.0667,253995
Mawlamyine,16.4847,97.6258,253734
Caruaru,-8.2828,-35.9758,253634
Tanta,30.7833,31.0000,253600
Amarnath,19.2090,73.1860,253475
Godome,6.3667,2.3500,253262
Rapar,23.5700,70.6300,253137
Samastipur,25.8629,85.7811,253136
Gokak,16.1667,74.8333,253000
Manavgat,36.7833,31.4333,252941
Shinozaki,33.9578,130.9414,252844
Aachen,50.7756,6.0836,252769
Parnamirim,-5.9158,-35.2628,252716
Jhenida,23.5425,89.1749,252500
Cimanggis,-6.3645,106.8591,252370
Bharatpur,27.2200,77.4800,252342
Los Teques,10.3333,-67.0417,252242
Round Lake Beach,42.3791,-88.0811,252224
Osmaniye,37.0750,36.2500,252186
Uberaba,-19.7478,-47.9319,252051
Begusarai,25.4200,86.1300,252008
Kediri,-7.8111,112.0047,252000
Kanggye,40.9667,126.6000,251971
Hakodate,41.7686,140.7289,251891
Tacloban,11.2400,125.0000,251881
Afyonkarahisar,38.7578,30.5386,251799
Iskenderun,36.5817,36.1650,251682
Montgomery,32.3482,-86.2668,251545
Soka,35.8254,139.8053,251390
Nedumana,8.9139,76.6889,251384
Higuey,18.6181,-68.7111,251243
Chesapeake,36.6778,-76.3023,251153
Wolverhampton,52.5833,-2.1333,250970
Pointe-a-Pitre,16.2411,-61.5331,250952
Al Fallujah,33.3500,43.7833,250884
Timisoara,45.7597,21.2300,250849
Bata,1.8650,9.7700,250770
Chemnitz,50.8333,12.9167,250681
Rach Gia,10.0167,105.0833,250660
Companiganj,22.8730,91.2782,250579
Venice,45.4397,12.3319,250369
Babol,36.5475,52.6783,250217
Glendale,33.5791,-112.2311,250193
La Paz,24.1422,-110.3108,250141
Kalar,34.6281,45.3185,250000
Turkistan,43.3019,68.2692,250000
Al Bayda',32.7628,21.7550,250000
Natogyi,21.4167,95.6500,250000
Kurmuk,10.5563,34.2848,250000
New Delhi,28.6139,77.2089,249998
Las Condes,-33.4117,-70.5500,249893
Goma,-1.6794,29.2336,249862
Rishon LeZiyyon,31.9500,34.8000,249860
Osorno,-40.5725,-73.1353,249728
Campeche,19.8500,-90.5306,249623
Tiruvottiyur,13.1600,80.3000,249446
Palangkaraya,-2.2100,113.9200,249434
A Coruna,43.3650,-8.4100,249261
Burnaby,49.2667,-122.9667,249125
Ramnagar,27.1700,84.3200,249102
Limeira,-22.5647,-47.4017,249046
Kiel,54.3233,10.1394,248873
Carmen,18.6431,-91.8306,248845
Gandhidham,23.0800,70.1300,248705
Banikoara,11.3000,2.4333,248621
Salumbar,24.0800,74.0200,248337
Kyongju,35.8500,129.2167,248244
Vantaa,60.2944,25.0403,248199
Sibu,2.3030,111.8430,247995
Qa'em Shahr,36.4636,52.8581,247953
Beykoz,41.1342,29.0922,247875
Nashua,42.7491,-71.4910,247828
Sahiwal,30.6611,73.1083,247706
Isparta,37.7647,30.5567,247580
Navotas,14.6667,120.9417,247543
Santa Clara,22.4067,-79.9531,247436
Yamagata,38.2554,140.3396,247234
Aksaray,38.3742,34.0289,247147
Governador Valadares,-18.8508,-41.9489,247131
Khomeyni Shahr,32.6803,51.5361,247128
Shijing,23.0930,113.7965,246960
York,39.9651,-76.7315,246769
Abertawe,51.6167,-3.9500,246700
Tsukuba-kenkyugakuen-toshi,36.0835,140.0764,246647
Oruro,-17.9799,-67.1300,246501
Macae,-22.3708,-41.7869,246391
Gyor,47.6842,17.6344,246159
Al `Ashir min Ramadan,30.2964,31.7463,246148
Mahajanga,-15.6700,46.3450,246022
Mount Lavinia,6.8339,79.8644,245974
Garland,32.9100,-96.6304,245298
Gdynia,54.5175,18.5400,245222
Barnsley,53.5547,-1.4791,245199
Taiping,4.8650,100.7200,245182
Syktyvkar,61.6667,50.8167,245083
Stoke-on-Trent,53.0255,-2.1761,245000
Sao Jose de Ribamar,-2.5619,-44.0539,244579
Rock Hill,34.9415,-81.0241,244403
Puducherry,11.9167,79.8167,244377
Merlo,-34.6653,-58.7275,244168
Portoviejo,-1.0561,-80.4553,244129
Damanhur,31.0500,30.4667,244043
Sarajevo,43.8564,18.4131,244000
Jessore,23.1704,89.2000,243987
Rivne,50.6192,26.2519,243873
Kesbewa,6.7914,79.9378,243842
Kanpur,26.4499,80.3319,243800
Fuji,35.1613,138.6763,243739
Eindhoven,51.4344,5.4842,243730
Sabzevar,36.2125,57.6764,243700
Santa Maria,-29.6839,-53.8069,243611
Bahir Dar,11.6000,37.3833,243300
Wudalianchi,48.7500,126.1667,243283
Elche,38.2669,-0.6983,243128
Myitkyina,25.3833,97.4000,243031
Ramgundam,18.7639,79.4750,242979
Tuy Hoa,13.0819,109.2950,242840
Sasebo,33.1800,129.7150,242664
Sapele,5.9000,5.6667,242652
Biratnagar,26.4833,87.2833,242548
Pandharpur,17.6778,75.3278,242515
Marg`ilon,40.4711,71.7247,242500
Qyzylorda,44.8500,65.5167,242462
St. Catharines,43.1833,-79.2333,242460
Chigasaki,35.3333,139.4000,242347
Araraquara,-21.7939,-48.1758,242228
Halle,51.4828,11.9697,242172
Scottsdale,33.6872,-111.8651,242169
Volta Redonda,-22.5231,-44.1042,242063
Americana,-22.7392,-47.3314,242018
Zhangping,25.2902,117.4200,242000
Man,7.4004,-7.5500,241969
Sete Lagoas,-19.4658,-44.2469,241835
Banchpar,23.2081,90.7979,241799
Sakaka,29.9697,40.2000,241669
Haeju,38.0333,125.7167,241599
Taganrog,47.2167,38.9167,241557
Hai Duong,20.9397,106.3306,241373
Masaurhi Buzurg,25.3500,85.0200,241216
Gelemso,8.8167,40.5167,241200
Alleppey,9.4900,76.3300,240991
Paramaribo,5.8522,-55.2039,240924
Baruta,10.4322,-66.8739,240755
Marilia,-22.2139,-49.9458,240590
Katihar,25.5300,87.5800,240565
Tarapoto,-6.4833,-76.3667,240453
Nizhnekamsk,55.6333,51.8167,240379
Atushi,39.7162,76.1684,240368
Abi al Khasib,30.4464,47.9781,240300
Jacarei,-23.3050,-45.9658,240275
Anju,39.6200,125.6600,240117
Magdeburg,52.1317,11.6392,240114
Andimeshk,32.4714,48.3489,240113
Bunkyo-ku,35.7167,139.7500,240069
Blagoveshchensk,50.2500,127.5333,239864
Horlivka,48.3000,38.0500,239828
Ahor,25.3670,72.7830,239642
Yato,35.4833,139.4500,239146
Matsumoto,36.2380,137.9720,239115
Chimoio,-19.1167,33.4500,238976
Lille,50.6278,3.0583,238695
Kasulu,-4.5800,30.1000,238321
Ivano-Frankivsk,48.9228,24.7106,238196
Chofugaoka,35.6506,139.5407,238087
Gonzalez Catan,-34.7667,-58.6167,238067
Wuyishan,27.7564,118.0353,238000
Shenmu,38.8244,110.4831,237846
Ganganagar,29.9200,73.8800,237780
Brasov,45.6667,25.6167,237589
Amol,36.4703,52.3467,237528
Freiburg im Breisgau,47.9950,7.8500,237244
Monclova,26.9103,-101.4222,237169
Chishui,28.5904,105.6975,237052
Djougou,9.7000,1.6667,237040
Mirpur Khas,25.5250,69.0158,236961
P'yongsong-si,39.2605,125.8618,236609
North Hempstead,40.7912,-73.6688,236600
Centurion,-25.8603,28.1894,236580
Tinkhang,27.2300,95.1700,236571
Rewa,24.5381,81.2953,236519
Usak,38.6778,29.4042,236366
Lyubertsy,55.6783,37.8944,236339
Pakdasht,35.4828,51.6814,236319
Kajang,2.9927,101.7909,236240
Petah Tiqwa,32.0833,34.8833,236169
Abha,18.2167,42.5000,236157
Al Minya,28.0833,30.7500,236043
Iseyin,7.9667,3.6000,236000
Central District,22.2867,114.1550,235953
Gaborone,-24.6569,25.9086,235884
Zinder,13.8014,8.9849,235605
Bole,44.8539,82.0514,235585
Aguadilla,18.4382,-67.1537,235546
Komsomol'sk-na-Amure,50.5667,137.0000,235488
Ganda,-13.0167,14.6333,235486
Arlington,38.8786,-77.1011,235463
Uluberiya,22.4700,88.1100,235345
Bulandshahr,28.4069,77.8497,235310
Banda Aceh,5.5500,95.3175,235305
Najafabad,32.6331,51.3650,235281
Shibuya-ku,35.6594,139.7006,235193
Ba Ria,10.4992,107.1675,235192
Bayamo,20.3795,-76.6433,235107
Limassol,34.6747,33.0442,235056
Norfolk,36.8945,-76.2590,235037
Georgetown,6.8011,-58.1550,235017
Borujerd,33.9111,48.7522,234997
Ibb,13.9759,44.1709,234837
Appleton,44.2780,-88.3892,234701
Garcia,25.8167,-100.5833,234698
Arapiraca,-9.7525,-36.6611,234696
Longquan,28.0667,119.1333,234626
Hoa Binh,20.8133,105.3383,234567
Miri,4.3999,113.9845,234541
Maracanau,-3.8769,-38.6258,234509
Oral,51.2225,51.3725,234184
Craiova,44.3333,23.8167,234140
Raichur,16.2000,77.3700,234073
Formosa,-26.1833,-58.1833,234000
Purwokerto,-7.4278,109.2417,233865
Chauhanpatti,25.1500,82.6000,233691
Bo,7.9564,-11.7400,233684
Mambere,5.5000,15.5000,233666
Damboa,11.1500,12.7500,233500
Groningen,53.2167,6.5667,233273
Anyang,37.3833,126.9333,233172
Ipswich,-27.6144,152.7608,232930
Teluk Intan,4.0119,101.0314,232800
Mbour,14.4104,-16.9649,232777
San Cristobal,18.4167,-70.1333,232769
Granada,37.1781,-3.6008,232717
Gravatai,-29.9433,-50.9939,232629
Cannanore,11.8745,75.3704,232486
Singida,-4.8167,34.7500,232459
Kigoma,-4.8833,29.6333,232388
Okara,30.8092,73.4536,232386
Saga,33.2636,130.3008,232359
Lin'an,23.6025,102.8309,232160
Enterprise,36.0091,-115.2278,232043
Beni,0.5000,29.4667,232000
Machilipatnam,16.1700,81.1300,232000
Nazipur,25.0455,88.7609,231900
Porto,41.1495,-8.6108,231800
Gulfport,30.4274,-89.0704,231754
Biyala,31.1742,31.2218,231569
Lafayette,30.2082,-92.0325,231548
Madan,30.3469,48.2825,231476
Huangjingkeng,22.9173,113.9958,231399
Rancagua,-34.1667,-70.7500,231370
Phu Yen,21.4156,105.8739,231363
Divinopolis,-20.1389,-44.8839,231091
Qarchak,35.4267,51.5842,231075
Ormoc,11.0106,124.6075,230998
Yoshiicho-shimobaru,33.1800,129.7150,230873
Fresnillo,23.1750,-102.8675,230865
Turkmenabat,39.0833,63.5667,230861
Son Tay,21.1333,105.5000,230577
Singkawang,0.9000,108.9833,230376
Zegoua,10.4519,-5.6511,230360
Marka,1.7156,44.7703,230100
Barishal,22.7000,90.3667,230000
Kulai,1.6561,103.6032,230000
Pali,25.7700,73.3300,229956
Songadh,21.1670,73.5640,229782
Gadda Madiral,18.7519,79.5133,229644
Hosur,12.7409,77.8253,229528
Ordu,40.9833,37.8833,229214
Kosice,48.7167,21.2500,229040
Kasukabe,35.9753,139.7523,228975
Bojnurd,37.4722,57.3289,228931
Envigado,6.1667,-75.5667,228848
Haridwar,29.9450,78.1630,228832
Vizianagaram,18.1159,83.4060,228720
Tarrasa,41.5700,2.0130,228708
Suzano,-23.5428,-46.3108,228690
Coban,15.4833,-90.3667,228664
Bremerton,47.5436,-122.7121,228576
Khenifra,32.9394,-5.6675,228567
Krefeld,51.3333,6.5667,228550
Fremont,37.5265,-121.9843,228518
Guantanamo,20.1383,-75.2061,228436
Sabya,17.1495,42.6254,228375
Pathardi,19.1700,75.1800,228279
Mage,-22.6528,-43.0408,228127
Neya,34.7667,135.6333,227997
Mel Palaiyam,8.7000,77.7069,227895
Tripoli,34.4367,35.8344,227857
Rennes,48.1147,-1.6794,227830
Ipatinga,-19.4678,-42.5369,227731
Saqultah,26.6582,31.6714,227719
Green Bay,44.5148,-87.9895,227679
Choloma,15.6127,-87.9507,227535
Khatima,28.9198,79.9699,227226
Badalona,41.4489,2.2461,227083
Petlad,22.4700,72.8000,227031
Kamianske,48.5167,34.6133,226845
Ageoshimo,35.9774,139.5932,226616
Changhua,24.0667,120.5333,226564
Regina,50.4547,-104.6067,226404
Ca Mau,9.1833,105.1500,226372
Korolev,55.9167,37.8167,226007
Tieli,46.9500,128.0500,225960
Dianbu,31.8883,117.4608,225808
Kolpino,59.7333,30.6000,225801
Chilpancingo,17.5500,-99.5000,225728
Rio Verde,-17.7978,-50.9278,225696
Meycauayan,14.7300,120.9500,225673
Presidente Prudente,-22.1258,-51.3889,225668
Varamin,35.3503,51.6364,225628
Padangsidempuan,1.3786,99.2722,225544
Uacu Cungo,-11.3583,15.1194,225520
Pudukkottai,10.3833,78.8001,225500
Hunchun,42.8630,130.3660,225454
Nadiad,22.6900,72.8600,225132
Toamasina,-18.1550,49.4100,225116
Fargo,46.8651,-96.8292,225066
Ternopil,49.5667,25.6000,225004
Mutare,-18.9667,32.6333,224802
Chuadanga,23.6418,88.8577,224576
Carlos Manuel de Cespedes,21.5767,-78.2775,224488
Nong'an,44.4347,125.1750,224387
Ota,36.2911,139.3754,224358
Deltona,28.9050,-81.2137,224303
Itaborai,-22.7475,-42.8558,224267
Puerto Vallarta,20.6458,-105.2222,224166
Capiata,-25.3538,-57.4426,224152
Viamao,-30.0808,-51.0228,224112
Chapeco,-27.0958,-52.6178,224013
Banfield,-34.7500,-58.3833,223898
Atsugicho,35.4333,139.3667,223815
Cox's Bazar,21.4539,91.9677,223522
Bandar-e Bushehr,28.9264,50.8514,223504
Tanjung Morawa,3.5167,98.7833,223450
Brownsville,25.9975,-97.4580,223416
Itapevi,-23.5489,-46.9342,223404
Probolinggo,-7.7500,113.2167,223159
Tanjore,10.7870,79.1378,222943
Mainz,49.9994,8.2736,222889
Hachinohe,40.5123,141.4884,222799
Barra do Dande,-8.4728,13.3731,222528
Mezitli,36.7500,34.5333,222436
Sandton,-26.1070,28.0517,222415
Velikiy Novgorod,58.5500,31.2667,222340
Cork,51.9000,-8.4731,222333
Dili,-8.5594,125.5795,222323
Tyrnavos,39.7333,22.2833,222280
Owo,7.1961,5.5864,222262
Swindon,51.5600,-1.7800,222193
Ciputat,-6.3111,106.7619,222186
Sabadell,41.5486,2.1075,222177
Myeik,12.4333,98.6000,222056
Kichha,28.9200,79.5000,221965
Hialeah,25.8696,-80.3045,221901
Longjiang,22.8853,113.0758,221881
Katri,23.4800,80.4000,221875
Takarazuka,34.8114,135.3406,221846
San Bernardino,34.1416,-117.2943,221774
Saricam,37.0333,35.4167,221733
Gueckedou,8.5667,-10.1333,221715
Neyshabur,36.2200,58.8200,221700
Xiqiao,22.9409,112.9819,221670
Ibb,13.9667,44.1667,221472
Soc Trang,9.6028,105.9736,221430
Dagarua,25.8000,87.6400,221229
Tchaourou,8.8833,2.6000,221108
Lutsk,50.7500,25.3358,220986
Duekoue,6.7419,-7.3492,220953
Sambhal,28.5800,78.5500,220813
Shakhty,47.7000,40.2333,220802
San Felipe,10.3406,-68.7369,220786
Saveh,35.0278,50.3611,220762
Oviedo,43.3600,-5.8450,220543
Tacoma,47.2431,-122.4531,220482
Santa Luzia,-19.7697,-43.8514,220444
Chi Linh,21.1330,106.3830,220421
La Vega,19.2200,-70.5300,220279
Singrauliya,24.2020,82.6660,220257
El Jadid,33.2333,-8.5000,220181
Ashdod,31.7978,34.6503,220174
Prizren,42.2139,20.7397,220128
Bratsk,56.1167,101.6000,220097
Thatta,24.7461,67.9244,220000
Gainesville,29.6804,-82.3459,219946
Spring Valley,36.0952,-115.2636,219913
Cartagena,37.6019,-0.9842,219777
Yenisehir,37.9333,40.2333,219759
Al Khubar,26.3000,50.2167,219679
Kropyvnytskyi,48.5000,32.2667,219676
Osisioma,5.1497,7.3303,219632
Tulua,4.0833,-76.2000,219138
Lubeck,53.8697,10.6864,219044
Zanzibar,-6.1650,39.1990,219007
Konibodom,40.2833,70.4167,219000
Kafue,-15.7667,28.1833,219000
Messina,38.1936,15.5542,218786
Pangkalpinang,-2.1333,106.1167,218569
Petrolina,-9.3928,-40.5078,218538
Bitung,1.4472,125.1978,218520
Santo Tomas,14.0800,121.1800,218500
Clarksville,36.5692,-87.3413,218159
Naihati,22.8900,88.4200,217900
Arakawa,35.7333,139.7833,217891
Babylon,40.6925,-73.3586,217860
Galati,45.4233,28.0425,217851
Jaynagar,26.5925,86.1372,217820
Laayoune,27.1500,-13.1989,217732
Tapachula,14.9000,-92.2667,217550
Angarsk,52.5500,103.9000,217365
Apapa,6.4500,3.3667,217362
